Dog_Name,Dog_Breed,Location_masked,Latitude_masked,Longitude_masked,Neighborhood
Abbey,Golden Retriever,"(42.38349452, -71.11509749)",42.38349452,-71.11509749,Agassiz
Abbey,Shih Tzu / Bichon Mix,"(42.36844099, -71.08162857)",42.36844099,-71.08162857,East Cambridge
Abbie Tingley,Bull Terrier,"(42.38925847, -71.14496021)",42.38925847,-71.14496021,Cambridge Highlands
Abby,Boxer,"(42.39164453, -71.14543354)",42.39164453,-71.14543354,Cambridge Highlands
Abby,Terrier Mix,"(42.37946112, -71.15324967)",42.37946112,-71.15324967,Strawberry Hill
Abby,Shepherd Mix,"(42.39538957, -71.14839476)",42.39538957,-71.14839476,North Cambridge
Abby,Labrador Retriever,"(42.38757534, -71.14007078)",42.38757534,-71.14007078,Neighborhood Nine
Abby,Labrador Retiever,"(42.37451382, -71.13673259)",42.37451382,-71.13673259,West Cambridge
Abby,Maltipoo,"(42.37087335, -71.09684057)",42.37087335,-71.09684057,The Port
Abby,Labrador Retriever,"(42.37468709, -71.14141712)",42.37468709,-71.14141712,West Cambridge
Abby,Labrador Retriever,"(42.35737017, -71.1134261)",42.35737017,-71.1134261,Cambridgeport
Abby,English Spaniel Springer,"(42.38543972, -71.11854298)",42.38543972,-71.11854298,Agassiz
Abby,Labrador Retriever,"(42.36860141, -71.10483514)",42.36860141,-71.10483514,Mid-Cambridge
Abby,Pug Chihuahua Mix,"(42.39490958, -71.13269813)",42.39490958,-71.13269813,North Cambridge
Abby,Mix,"(42.38018141, -71.12601633)",42.38018141,-71.12601633,Neighborhood Nine
Abby,Australian Shepherd,"(42.36198731, -71.11241116)",42.36198731,-71.11241116,Cambridgeport
Abby,Basenji,"(42.38903688, -71.13270296)",42.38903688,-71.13270296,Neighborhood Nine
Abe,Labrador Retriever,"(42.39533888, -71.12979565)",42.39533888,-71.12979565,North Cambridge
Acadia,Labrador Mix,"(42.38534405, -71.13713524)",42.38534405,-71.13713524,West Cambridge
Ace,Chihuahua,"(42.35629148, -71.10581518)",42.35629148,-71.10581518,Cambridgeport
Ace,Labrador Retriever,"(42.36297333, -71.11372454)",42.36297333,-71.11372454,Riverside
Ace,Pug,"(42.37158246, -71.08963127)",42.37158246,-71.08963127,Wellington-Harrington
Achilles,Mix,"(42.36706096, -71.10102433)",42.36706096,-71.10102433,The Port
Ada,King Charl Cav Span,"(42.36493021, -71.11142328)",42.36493021,-71.11142328,Riverside
Addie,Golden Retriever,"(42.37860962, -71.12560568)",42.37860962,-71.12560568,West Cambridge
Addie,Beagle Lab Mix,"(42.38627909, -71.13115943)",42.38627909,-71.13115943,Neighborhood Nine
Addie,Labrador Retriever,"(42.37227816, -71.11239966)",42.37227816,-71.11239966,Mid-Cambridge
Addis,Cockerpoo,"(42.35957569, -71.11076942)",42.35957569,-71.11076942,Cambridgeport
Adelaide,Hound Mix,"(42.36909576, -71.08493385)",42.36909576,-71.08493385,East Cambridge
Adelaide,Australian Shepherd,"(42.36979443, -71.09534686)",42.36979443,-71.09534686,Wellington-Harrington
Adelaide,Australian Cattle Dog,"(42.38223919, -71.14461692)",42.38223919,-71.14461692,West Cambridge
Adelaide,Labradoddle,"(42.37723547, -71.13285723)",42.37723547,-71.13285723,West Cambridge
Aegon,Greyhound,"(42.37071824, -71.08701591)",42.37071824,-71.08701591,East Cambridge
Agatha,Boxer,"(42.37512618, -71.1552871)",42.37512618,-71.1552871,NA
Agnes,Pug,"(42.36807569, -71.10475199)",42.36807569,-71.10475199,Mid-Cambridge
Agnes,French Bull Dog,"(42.38155125, -71.14273874)",42.38155125,-71.14273874,West Cambridge
Ainsley,Labrador Retriever,"(42.36676442, -71.11137456)",42.36676442,-71.11137456,Riverside
Ajax,Pointer,"(42.38295536, -71.12284687)",42.38295536,-71.12284687,Neighborhood Nine
Ajax,Poodle,"(42.36856575, -71.08316523)",42.36856575,-71.08316523,East Cambridge
Ajax,Dachshund,"(42.37142905, -71.09806216)",42.37142905,-71.09806216,The Port
Ajax,Labrador Retriever Mix,"(42.38950532, -71.12655806)",42.38950532,-71.12655806,North Cambridge
Aka,Shiba Inu,"(42.38398237, -71.12113389)",42.38398237,-71.12113389,Neighborhood Nine
Akadia,Maltese,"(42.36293447, -71.1050257)",42.36293447,-71.1050257,Cambridgeport
Aki,Bichon Bolognese,"(42.39430094, -71.14771393)",42.39430094,-71.14771393,North Cambridge
Akuma,Puggle,"(42.36922374, -71.08544063)",42.36922374,-71.08544063,East Cambridge
Ala,Teri/Mix,"(42.39317931, -71.13024112)",42.39317931,-71.13024112,North Cambridge
Alaska,Siberian Husky,"(42.38144928, -71.15334129)",42.38144928,-71.15334129,Strawberry Hill
Alba,Labradoddle,"(42.38460237, -71.11902078)",42.38460237,-71.11902078,Agassiz
Albee,Pointer,"(42.36812302, -71.11172479)",42.36812302,-71.11172479,Riverside
Albert,Pug,"(42.39042278, -71.12458604)",42.39042278,-71.12458604,North Cambridge
Albert,Labrador Retriever,"(42.37049959, -71.11968041)",42.37049959,-71.11968041,Riverside
Alby,Shih Tzu,"(42.36808727, -71.1123892)",42.36808727,-71.1123892,Riverside
Alex,Bernese Mountain Dog,"(42.38694861, -71.15968587)",42.38694861,-71.15968587,Strawberry Hill
Alexander,Bichon Frise,"(42.37731889, -71.13984687)",42.37731889,-71.13984687,West Cambridge
Alexis,Labradoar,"(42.36767, -71.10916229)",42.36767,-71.10916229,Mid-Cambridge
Alexis,Labrador Retriever,"(42.36793544, -71.10862514)",42.36793544,-71.10862514,Mid-Cambridge
Alf,Goldendoodle,"(42.3989482, -71.12965078)",42.3989482,-71.12965078,North Cambridge
Alfie,Jack Russel Terrier,"(42.36316059, -71.08291509)",42.36316059,-71.08291509,East Cambridge
Alfie,Golden Retriever,"(42.37403055, -71.13862435)",42.37403055,-71.13862435,West Cambridge
Ali,Chihuahua Mix,"(42.38425082, -71.12823535)",42.38425082,-71.12823535,Neighborhood Nine
Ali,Maltese,"(42.38557753, -71.11588962)",42.38557753,-71.11588962,Agassiz
Ali,Chihuahua,"(42.38597164, -71.12818321)",42.38597164,-71.12818321,Neighborhood Nine
Ali,Bernese Mountain Dog,"(42.38615154, -71.16087865)",42.38615154,-71.16087865,Strawberry Hill
Alice,Pointer Mix,"(42.37428357, -71.13759182)",42.37428357,-71.13759182,West Cambridge
Alice,Labrador Retriever,"(42.38666654, -71.13578359)",42.38666654,-71.13578359,Neighborhood Nine
Alice,Dachshund,"(42.37681697, -71.13420273)",42.37681697,-71.13420273,West Cambridge
Alice,Greyhound,"(42.37277946, -71.10243179)",42.37277946,-71.10243179,Mid-Cambridge
Alice,Lab Shepherd Mix,"(42.36085054, -71.11008461)",42.36085054,-71.11008461,Cambridgeport
Ali Mae,Basenji,"(42.38910487, -71.1221922)",42.38910487,-71.1221922,North Cambridge
Alley,Greyhound,"(42.38552171, -71.12899848)",42.38552171,-71.12899848,Neighborhood Nine
Alli,Australian Shepherd,"(42.38392066, -71.13928765)",42.38392066,-71.13928765,West Cambridge
Allie,Beagle Mix,"(42.36713674, -71.09673774)",42.36713674,-71.09673774,The Port
Allie,Labrador Retriever,"(42.36789591, -71.10559191)",42.36789591,-71.10559191,Mid-Cambridge
Allie,Cockerpoo,"(42.38448213, -71.12358345)",42.38448213,-71.12358345,Neighborhood Nine
Allusha,Italian Greyhould,"(42.3796165, -71.12458502)",42.3796165,-71.12458502,West Cambridge
Ally,Beagle Mix,"(42.37575966, -71.13498079)",42.37575966,-71.13498079,West Cambridge
Alo,German Shepherd,"(42.37156593, -71.09542824)",42.37156593,-71.09542824,Wellington-Harrington
Aloo,Catahoula,"(42.37066281, -71.08984074)",42.37066281,-71.08984074,Wellington-Harrington
Alpine,Lab Mix,"(42.36046471, -71.10654757)",42.36046471,-71.10654757,Cambridgeport
Alvin,Golden Doodle Mix,"(42.38736087, -71.13163629)",42.38736087,-71.13163629,Neighborhood Nine
Alyssa,Labrador Retriever,"(42.38730688, -71.12172723)",42.38730688,-71.12172723,Neighborhood Nine
Amana,Pitbull,"(42.36477714, -71.1110273)",42.36477714,-71.1110273,Riverside
Amie,Chihuahua Mix,"(42.37809669, -71.15086091)",42.37809669,-71.15086091,Strawberry Hill
Amigo,Chihuahua,"(42.37028673, -71.10812676)",42.37028673,-71.10812676,Mid-Cambridge
Amigo,Chihuahua,"(42.37014143, -71.08443378)",42.37014143,-71.08443378,East Cambridge
Amit,Labrador Retriever,"(42.36762085, -71.08236131)",42.36762085,-71.08236131,East Cambridge
Amos,Lakeland Terrier,"(42.37860541, -71.12550902)",42.37860541,-71.12550902,Neighborhood Nine
Amy,Golden Retriever,"(42.37059288, -71.07928973)",42.37059288,-71.07928973,East Cambridge
Ana Ekaterina,Aus Cat Mix,"(42.368636, -71.071485)",42.368636,-71.071485,East Cambridge
Ana Luzia,Golden Retriever,"(42.38634165, -71.1208569)",42.38634165,-71.1208569,Neighborhood Nine
Andre,Toy Poodle,"(42.36427167, -71.11006769)",42.36427167,-71.11006769,Cambridgeport
Andy,Bichon Frise,"(42.37353608, -71.08079372)",42.37353608,-71.08079372,East Cambridge
Andy,Corgi,"(42.37813373, -71.10899038)",42.37813373,-71.10899038,Agassiz
Angel,Pit Bull Mix,"(42.36331662, -71.10648457)",42.36331662,-71.10648457,Cambridgeport
Angel,Terrier Mix,"(42.38612626, -71.12113124)",42.38612626,-71.12113124,Neighborhood Nine
Angel,Pit Bull,"(42.3936365, -71.12873416)",42.3936365,-71.12873416,North Cambridge
Angie,Basenji,"(42.37059714, -71.0773062)",42.37059714,-71.0773062,East Cambridge
Angus,West Highland White Terrier,"(42.37977148, -71.12395813)",42.37977148,-71.12395813,Neighborhood Nine
Angus,Havanese,"(42.38425679, -71.11826692)",42.38425679,-71.11826692,Agassiz
Angus,Border Collie,"(42.3648951, -71.08343808)",42.3648951,-71.08343808,East Cambridge
Anita,Beagle,"(42.37243839, -71.09621357)",42.37243839,-71.09621357,Wellington-Harrington
Anna,Chinook,"(42.38794171, -71.14464973)",42.38794171,-71.14464973,Cambridge Highlands
Anna,Yorksire Terrier,"(42.3916601, -71.11951391)",42.3916601,-71.11951391,North Cambridge
Anna,Chihuahua,"(42.36447091, -71.09568502)",42.36447091,-71.09568502,The Port
Annabelle,Boxer,"(42.36799076, -71.10633575)",42.36799076,-71.10633575,Mid-Cambridge
Annabelle,Labrador Retriever Mix,"(42.38503945, -71.12092662)",42.38503945,-71.12092662,Neighborhood Nine
Annie,West Highland White Terrier,"(42.36841514, -71.1014647)",42.36841514,-71.1014647,The Port
Annie,Pit Bull,"(42.36652755, -71.10864396)",42.36652755,-71.10864396,Riverside
Annie,Terrier,"(42.39350585, -71.12915617)",42.39350585,-71.12915617,North Cambridge
Annie,Husky / Mix,"(42.36266957, -71.11062478)",42.36266957,-71.11062478,Cambridgeport
Annie,Corgi,"(42.40030706, -71.13557868)",42.40030706,-71.13557868,North Cambridge
Annie,Dachshund,"(42.39197383, -71.12659083)",42.39197383,-71.12659083,North Cambridge
Annie,Terrier,"(42.3642169, -71.10681576)",42.3642169,-71.10681576,Riverside
Annie,Mixed,"(42.39996408, -71.15176136)",42.39996408,-71.15176136,North Cambridge
Annie,Border Collie,"(42.38453466, -71.12916968)",42.38453466,-71.12916968,Neighborhood Nine
Annie,Coonhound,"(42.38033415, -71.13891091)",42.38033415,-71.13891091,West Cambridge
Annie,Pug,"(42.36640668, -71.10979339)",42.36640668,-71.10979339,Riverside
Annie,Chihuahua Mix,"(42.35981483, -71.1081778)",42.35981483,-71.1081778,Cambridgeport
Annie,Labrador Retriever,"(42.36232919, -71.10310743)",42.36232919,-71.10310743,Cambridgeport
Annie,Rat Terr,"(42.36144498, -71.10843782)",42.36144498,-71.10843782,Cambridgeport
Annie,Pit Bull,"(42.39891276, -71.13727349)",42.39891276,-71.13727349,North Cambridge
Annie/Hildegaard,Dachshund,"(42.40057872, -71.13299876)",42.40057872,-71.13299876,North Cambridge
Annika,German Shepherd,"(42.3812164, -71.13589001)",42.3812164,-71.13589001,West Cambridge
Anubis,Poodle,"(42.39655068, -71.13284382)",42.39655068,-71.13284382,North Cambridge
Anvik,Alaskan Malamute,"(42.37561249, -71.12663841)",42.37561249,-71.12663841,West Cambridge
Anzu,Labrador Retriever,"(42.36802476, -71.10519356)",42.36802476,-71.10519356,Mid-Cambridge
Apache,Terrier,"(42.3760595, -71.12263052)",42.3760595,-71.12263052,West Cambridge
Apollo,Pit Bull Terrier Mix,"(42.38909884, -71.13143063)",42.38909884,-71.13143063,Neighborhood Nine
Apollo,Labradoddle,"(42.37313367, -71.12174544)",42.37313367,-71.12174544,West Cambridge
Apollo,Golden Retriever,"(42.37422704, -71.12581123)",42.37422704,-71.12581123,West Cambridge
Apollo,Pitbull Terrier Mix,"(42.3901804, -71.13235384)",42.3901804,-71.13235384,Neighborhood Nine
Appah,Puli,"(42.36979891, -71.07645517)",42.36979891,-71.07645517,East Cambridge
Apu,Australian Terrier,"(42.38662974, -71.13825507)",42.38662974,-71.13825507,Neighborhood Nine
Archibald,Havanese Mix,"(42.35549861, -71.09954217)",42.35549861,-71.09954217,Area 2/MIT
Archie,Newfoundland,"(42.35745194, -71.11132781)",42.35745194,-71.11132781,Cambridgeport
Archie,Welsh Terrier,"(42.35848251, -71.10757308)",42.35848251,-71.10757308,Cambridgeport
Archie,English Shepherd,"(42.38074069, -71.13658871)",42.38074069,-71.13658871,West Cambridge
Archie,Dachshund,"(42.3861131, -71.11843269)",42.3861131,-71.11843269,Agassiz
Archie,Golden Retriever,"(42.39336286, -71.15393073)",42.39336286,-71.15393073,Cambridge Highlands
Archie,Cockerpoo,"(42.36848587, -71.08081348)",42.36848587,-71.08081348,East Cambridge
Archie,Rat Terrier,"(42.37167816, -71.10318913)",42.37167816,-71.10318913,Mid-Cambridge
Archie Tyrone,Bichon Frise Mix,"(42.39495568, -71.13032464)",42.39495568,-71.13032464,North Cambridge
Argos,Boxer,"(42.3859992, -71.1297877)",42.3859992,-71.1297877,Neighborhood Nine
Argos,English Bulldog,"(42.35797281, -71.11431398)",42.35797281,-71.11431398,Cambridgeport
Argos,Labrador Retriever Mix,"(42.37351266, -71.12323595)",42.37351266,-71.12323595,West Cambridge
Arianna,Poodle,"(42.38364381, -71.13561372)",42.38364381,-71.13561372,West Cambridge
Ariel,Basenji,"(42.38191698, -71.13572993)",42.38191698,-71.13572993,West Cambridge
Arlo,Retr Mix,"(42.36676731, -71.11048403)",42.36676731,-71.11048403,Riverside
Arlo,Jindo,"(42.38148607, -71.11325568)",42.38148607,-71.11325568,Agassiz
Arlo,Golden Retriever,"(42.36830637, -71.09478141)",42.36830637,-71.09478141,Wellington-Harrington
Arlo,Spanish Water Dog,"(42.36226932, -71.10928659)",42.36226932,-71.10928659,Cambridgeport
Arly,Shetland Sheepdog,"(42.37428021, -71.12515786)",42.37428021,-71.12515786,West Cambridge
Armstrong,Chihuahua,"(42.37291422, -71.07869296)",42.37291422,-71.07869296,East Cambridge
Arrow,Poodle,"(42.36088137, -71.11244695)",42.36088137,-71.11244695,Cambridgeport
Arthur,Belgian Mix,"(42.38240797, -71.12725109)",42.38240797,-71.12725109,Neighborhood Nine
Artimiss,Maltese Mix,"(42.361634, -71.10499964)",42.361634,-71.10499964,Cambridgeport
Arwen,English Setter,"(42.35606044, -71.1111302)",42.35606044,-71.1111302,Cambridgeport
Arya,Poodle,"(42.39737665, -71.13315849)",42.39737665,-71.13315849,North Cambridge
Arya,Shepherd Mix,"(42.38956963, -71.1481432)",42.38956963,-71.1481432,Cambridge Highlands
Arya,Samoyed,"(42.36158199, -71.10750009)",42.36158199,-71.10750009,Cambridgeport
Arya,Border Collie,"(42.39249946, -71.14550587)",42.39249946,-71.14550587,Cambridge Highlands
Arya,Labrador Retriever,"(42.36438876, -71.10482733)",42.36438876,-71.10482733,Cambridgeport
Aser,Labrador Retriever,"(42.39261961, -71.1455781)",42.39261961,-71.1455781,Cambridge Highlands
Ash,Golden Retriever,"(42.38627829, -71.13098575)",42.38627829,-71.13098575,Neighborhood Nine
Asoka,Chihuahua,"(42.37176754, -71.0942675)",42.37176754,-71.0942675,Wellington-Harrington
Asterix,Mi-Ki,"(42.37395266, -71.12212571)",42.37395266,-71.12212571,West Cambridge
Astrid,Saluki,"(42.3703489, -71.10158007)",42.3703489,-71.10158007,Mid-Cambridge
Astro,Chiuahua Mix,"(42.3900299, -71.12882024)",42.3900299,-71.12882024,Neighborhood Nine
Astro,Australian Terrier,"(42.3857239, -71.13736876)",42.3857239,-71.13736876,Neighborhood Nine
Astro Kozberg,Maltese,"(42.36128498, -71.10175329)",42.36128498,-71.10175329,Cambridgeport
Athena,Maltipoo,"(42.38365026, -71.12693409)",42.38365026,-71.12693409,Neighborhood Nine
Athena,Shep,"(42.36608303, -71.09350442)",42.36608303,-71.09350442,The Port
Athena,Pug,"(42.36983966, -71.12107483)",42.36983966,-71.12107483,Riverside
Athena,Vizsla,"(42.39103163, -71.13166813)",42.39103163,-71.13166813,North Cambridge
Athena Wozniak,Labrador Retriever,"(42.38308257, -71.13422924)",42.38308257,-71.13422924,West Cambridge
Atlas,Cavalier King Charles Spaniel,"(42.35567381, -71.09615435)",42.35567381,-71.09615435,Area 2/MIT
Atlas,Chihuahua,"(42.39288031, -71.1466583)",42.39288031,-71.1466583,Cambridge Highlands
Atlas,Great Dane,"(42.37347161, -71.08979945)",42.37347161,-71.08979945,Wellington-Harrington
Atom,Terrier Mix,"(42.39493035, -71.14314685)",42.39493035,-71.14314685,North Cambridge
Atom,Terrier Mix,"(42.39449497, -71.14320044)",42.39449497,-71.14320044,North Cambridge
Atom,Miniature Schnauzer,"(42.38007678, -71.11937984)",42.38007678,-71.11937984,Neighborhood Nine
Atticus,Miniature Goldendoodle,"(42.3797619, -71.12086202)",42.3797619,-71.12086202,Neighborhood Nine
Aube,Portuguese Water Dog,"(42.38994198, -71.1260253)",42.38994198,-71.1260253,Neighborhood Nine
Aubergine,Coonhound Mix,"(42.39868717, -71.13848934)",42.39868717,-71.13848934,North Cambridge
Audrey,Border Collie,"(42.39324727, -71.13859425)",42.39324727,-71.13859425,North Cambridge
Auggie,Wheaton Terrier,"(42.36127233, -71.10995681)",42.36127233,-71.10995681,Cambridgeport
Augie,Labrador Retriever Mix,"(42.38080212, -71.12950265)",42.38080212,-71.12950265,West Cambridge
Augustus,Bichon Frise,"(42.38038495, -71.11685026)",42.38038495,-71.11685026,Agassiz
Au Lait,Bichon Frise,"(42.36602459, -71.11093184)",42.36602459,-71.11093184,Riverside
Auri,Shep,"(42.39258824, -71.12895258)",42.39258824,-71.12895258,North Cambridge
Auri,Whippet,"(42.36134969, -71.10402166)",42.36134969,-71.10402166,Cambridgeport
Austin,Bichon Frise,"(42.38032708, -71.12582664)",42.38032708,-71.12582664,Neighborhood Nine
Austin,Labradoddle,"(42.3878202, -71.1255223)",42.3878202,-71.1255223,Neighborhood Nine
Austin,Labradoodle,"(42.3865965, -71.12475954)",42.3865965,-71.12475954,Neighborhood Nine
Autumn,Labrador Retriever,"(42.37098282, -71.10808939)",42.37098282,-71.10808939,Mid-Cambridge
Ava,Yorkie Poo,"(42.39114068, -71.14578371)",42.39114068,-71.14578371,Cambridge Highlands
Ava Maria,Redbone Coonhound,"(42.3942617, -71.14744926)",42.3942617,-71.14744926,North Cambridge
Avett,Terrier Mix,"(42.38374045, -71.13599165)",42.38374045,-71.13599165,West Cambridge
Avie,Feist,"(42.39967486, -71.14048928)",42.39967486,-71.14048928,North Cambridge
Axel,Mountain Cur Mix,"(42.38740228, -71.12891575)",42.38740228,-71.12891575,Neighborhood Nine
Axel,,"(42.39986656, -71.15225132)",42.39986656,-71.15225132,North Cambridge
Ayanna,Pomeranian,"(42.3919515, -71.14671261)",42.3919515,-71.14671261,Cambridge Highlands
Ayla,Aussie Mix,"(42.36676723, -71.08354888)",42.36676723,-71.08354888,East Cambridge
Ayler,German Shepherd,"(42.38603394, -71.13292852)",42.38603394,-71.13292852,Neighborhood Nine
Azula,Doberman,"(42.3753862, -71.14525495)",42.3753862,-71.14525495,West Cambridge
Azulita,Weimaraner Mix,"(42.3726346, -71.0719746)",42.3726346,-71.0719746,East Cambridge
Azure,Chihuahua,"(42.39049505, -71.13130703)",42.39049505,-71.13130703,North Cambridge
Babette,Miniature Bull Terrier,"(42.36315621, -71.08389335)",42.36315621,-71.08389335,East Cambridge
Baby,Chihuahua Dachsund Mix,"(42.3702605, -71.09001795)",42.3702605,-71.09001795,Wellington-Harrington
Baby,Pekingese,"(42.37298494, -71.09597403)",42.37298494,-71.09597403,Wellington-Harrington
Baby,Bedlington Terr,"(42.37505864, -71.12531019)",42.37505864,-71.12531019,West Cambridge
Baby Horace,Shih Tzu Mix,"(42.37282092, -71.12692431)",42.37282092,-71.12692431,West Cambridge
Baby Renta,Shih - Tzu,"(42.38609206, -71.13499729)",42.38609206,-71.13499729,Neighborhood Nine
Bacca,Australian Cattle Dog,"(42.37922936, -71.12491628)",42.37922936,-71.12491628,Neighborhood Nine
Baci,LABRADOR Retriever,"(42.37725507, -71.14220178)",42.37725507,-71.14220178,West Cambridge
Baci,Labrador Retriever,"(42.36933758, -71.10648659)",42.36933758,-71.10648659,Mid-Cambridge
Baci,Corgi,"(42.38079494, -71.1297742)",42.38079494,-71.1297742,West Cambridge
Baeley,Pug,"(42.37134182, -71.12369351)",42.37134182,-71.12369351,West Cambridge
Bagel,French Bulldog,"(42.37066266, -71.07318786)",42.37066266,-71.07318786,East Cambridge
Bailey,Puggle,"(42.37127821, -71.07377547)",42.37127821,-71.07377547,East Cambridge
Bailey,Hound Mix,"(42.37891776, -71.15479651)",42.37891776,-71.15479651,Strawberry Hill
Bailey,Shep,"(42.38452413, -71.13518897)",42.38452413,-71.13518897,West Cambridge
Bailey,French Bulldog,"(42.37004998, -71.07748505)",42.37004998,-71.07748505,East Cambridge
Bailey,Labrador Retriever,"(42.38174353, -71.1348987)",42.38174353,-71.1348987,West Cambridge
Bailey,Labradoddle,"(42.39088823, -71.13050723)",42.39088823,-71.13050723,North Cambridge
Bailey,Golden Retriever,"(42.38313408, -71.12855282)",42.38313408,-71.12855282,Neighborhood Nine
Bailey,Hound,"(42.38562814, -71.13930216)",42.38562814,-71.13930216,Neighborhood Nine
Bailey,Spaniel Mix,"(42.39534232, -71.14765942)",42.39534232,-71.14765942,North Cambridge
Bailey,Dachshund,"(42.37310845, -71.08141594)",42.37310845,-71.08141594,East Cambridge
Bailey,Shih Tzu,"(42.37510029, -71.15406564)",42.37510029,-71.15406564,Strawberry Hill
Bailey,Terrier,"(42.35501859, -71.10752276)",42.35501859,-71.10752276,Cambridgeport
Bailey,Samoyed,"(42.37895865, -71.13311616)",42.37895865,-71.13311616,West Cambridge
Bailey,Labrador Retriever,"(42.37164298, -71.14070302)",42.37164298,-71.14070302,West Cambridge
Bailey,Boerboel,"(42.36874332, -71.10745867)",42.36874332,-71.10745867,Mid-Cambridge
Bailey,Yorksire Terrier,"(42.39813131, -71.13153221)",42.39813131,-71.13153221,North Cambridge
Bailey,Pit Bull,"(42.39300832, -71.15466387)",42.39300832,-71.15466387,Cambridge Highlands
Bailey,Lhasa Poo,"(42.39650611, -71.13372615)",42.39650611,-71.13372615,North Cambridge
Bailey,Golden Retriever,"(42.39810466, -71.13586353)",42.39810466,-71.13586353,North Cambridge
Bailey,Cocker Spaniel,"(42.37045718, -71.10881633)",42.37045718,-71.10881633,Mid-Cambridge
Bailey,Labrador Retriever,"(42.35697052, -71.10559977)",42.35697052,-71.10559977,Cambridgeport
Bailey,Chihuahua,"(42.38853098, -71.12868626)",42.38853098,-71.12868626,Neighborhood Nine
Bailey,Boston Terrier,"(42.3613308, -71.10757592)",42.3613308,-71.10757592,Cambridgeport
Bailey,Australian Cattle Dog Mix,"(42.3589906, -71.10731983)",42.3589906,-71.10731983,Cambridgeport
Bailey,Maltese,"(42.37059314, -71.07478335)",42.37059314,-71.07478335,East Cambridge
Bailey,Golden Retriever,"(42.3927397, -71.12162065)",42.3927397,-71.12162065,North Cambridge
Bailey Hogan,Hound,"(42.37098842, -71.10932297)",42.37098842,-71.10932297,Mid-Cambridge
Baldwin,Treeing Walker Coonhound,"(42.35860348, -71.10696647)",42.35860348,-71.10696647,Cambridgeport
Baloo,LABRADOODLE,"(42.367505, -71.08273605)",42.367505,-71.08273605,East Cambridge
Baloo,Labrador Retriever,"(42.40033163, -71.15149549)",42.40033163,-71.15149549,North Cambridge
Balou,Border Collie,"(42.3698759, -71.0875994)",42.3698759,-71.0875994,East Cambridge
Baltas,West Highland White Terrier,"(42.35922744, -71.10781206)",42.35922744,-71.10781206,Cambridgeport
Baltie,Goldendoodle,"(42.38541405, -71.12259434)",42.38541405,-71.12259434,Neighborhood Nine
Bama,Shih Tzu,"(42.36368539, -71.11343192)",42.36368539,-71.11343192,Riverside
Bambi,Chihuahua,"(42.36508624, -71.0936914)",42.36508624,-71.0936914,The Port
Bambu,Boston Terrier,"(42.36813467, -71.08955244)",42.36813467,-71.08955244,Wellington-Harrington
Bandit,Chihuahua,"(42.39166538, -71.14542775)",42.39166538,-71.14542775,Cambridge Highlands
Bandit,Australian Shep Mix,"(42.39972367, -71.13784002)",42.39972367,-71.13784002,North Cambridge
Bandit,Golden Retriever,"(42.35852043, -71.10933896)",42.35852043,-71.10933896,Cambridgeport
Bandit,Mountain Cur Mix,"(42.37298988, -71.08215079)",42.37298988,-71.08215079,East Cambridge
Bandit,PAPILLON,"(42.39283822, -71.12546508)",42.39283822,-71.12546508,North Cambridge
Bandit,Pit Bull,"(42.36875757, -71.08184088)",42.36875757,-71.08184088,East Cambridge
Banjo,Cockerpoo,"(42.37060415, -71.10997302)",42.37060415,-71.10997302,Mid-Cambridge
Banjo,Min Australian Shepherd,"(42.36390992, -71.10816812)",42.36390992,-71.10816812,Cambridgeport
Banjo,Miniature Australian Shepherd,"(42.36258481, -71.10760343)",42.36258481,-71.10760343,Cambridgeport
Banjo,Mini Aussie Shepherd,"(42.36442925, -71.10758626)",42.36442925,-71.10758626,Cambridgeport
Banjo,Shih Tzu,"(42.3836049, -71.13626905)",42.3836049,-71.13626905,West Cambridge
Banjo,Chihuahua Mix,"(42.39522208, -71.13019087)",42.39522208,-71.13019087,North Cambridge
Banks,Labrador Retriever,"(42.37510978, -71.1014486)",42.37510978,-71.1014486,Mid-Cambridge
Banni,Terrier,"(42.37533624, -71.15203719)",42.37533624,-71.15203719,Strawberry Hill
Barcley,Chihuahua Mix,"(42.38064231, -71.1429261)",42.38064231,-71.1429261,West Cambridge
Bard,German Shepard Mix,"(42.3864363, -71.13078483)",42.3864363,-71.13078483,Neighborhood Nine
Barfie,Maltese,"(42.37599782, -71.14868325)",42.37599782,-71.14868325,West Cambridge
Barkley,Long Hair Dachshund,"(42.3862, -71.12759189)",42.3862,-71.12759189,Neighborhood Nine
Barkley,Mix,"(42.37547038, -71.14655555)",42.37547038,-71.14655555,West Cambridge
Barkley,Airedale,"(42.37694304, -71.14422387)",42.37694304,-71.14422387,West Cambridge
Barkley,Labrador Retriever,"(42.38558217, -71.12366221)",42.38558217,-71.12366221,Neighborhood Nine
Barkley,American Bull Dog,"(42.36827073, -71.11205053)",42.36827073,-71.11205053,Riverside
Barkley,Golden Retriever,"(42.38328485, -71.11979192)",42.38328485,-71.11979192,Neighborhood Nine
Barley,Labradoodle,"(42.37701141, -71.13733984)",42.37701141,-71.13733984,West Cambridge
Barley,Samoyed,"(42.36594913, -71.09701705)",42.36594913,-71.09701705,The Port
Barnaby,Standard Poodle,"(42.39810099, -71.13591598)",42.39810099,-71.13591598,North Cambridge
Barnaby,French Bulldog,"(42.3745911, -71.10460514)",42.3745911,-71.10460514,Mid-Cambridge
Barney,West Highland White Terrier,"(42.38299215, -71.13580779)",42.38299215,-71.13580779,West Cambridge
Barney,Terrier Mix,"(42.39971068, -71.1407734)",42.39971068,-71.1407734,North Cambridge
Barney,Australian Shepherd,"(42.39455839, -71.13554236)",42.39455839,-71.13554236,North Cambridge
Barney,Golden Retriever,"(42.39016478, -71.12861935)",42.39016478,-71.12861935,Neighborhood Nine
Barney,Dachshund Mix,"(42.3996814, -71.13461809)",42.3996814,-71.13461809,North Cambridge
Barney,Labrador Retriever,"(42.38347412, -71.12977007)",42.38347412,-71.12977007,Neighborhood Nine
Barney,Dachshund,"(42.39988406, -71.13425328)",42.39988406,-71.13425328,North Cambridge
Barnicle,Terrier Mix,"(42.3754115, -71.15077652)",42.3754115,-71.15077652,Strawberry Hill
Barnum,Cocker Spaniel,"(42.3919565, -71.14538727)",42.3919565,-71.14538727,Cambridge Highlands
Bartok,Labrador Mix,"(42.35948096, -71.08396619)",42.35948096,-71.08396619,Area 2/MIT
Basil,Border Collie,"(42.39394214, -71.14201101)",42.39394214,-71.14201101,North Cambridge
Bassam,,"(42.36442556, -71.07775277)",42.36442556,-71.07775277,East Cambridge
Baxter,Labrador Retriever Mix,"(42.39352279, -71.13088193)",42.39352279,-71.13088193,North Cambridge
Baxter,HAVANESE,"(42.37196034, -71.07447845)",42.37196034,-71.07447845,East Cambridge
Baxter,Labrador Retriever,"(42.37917733, -71.1516241)",42.37917733,-71.1516241,Strawberry Hill
Baxter,Golden Doodle,"(42.37449604, -71.13119685)",42.37449604,-71.13119685,West Cambridge
Baxter,Golden Doodle,"(42.38069053, -71.14405644)",42.38069053,-71.14405644,West Cambridge
Baxter,Siberian Husky,"(42.35570256, -71.10876384)",42.35570256,-71.10876384,Cambridgeport
Baxter,Beagle,"(42.38488734, -71.13171431)",42.38488734,-71.13171431,Neighborhood Nine
Baxter,Labrador Retriever,"(42.39863916, -71.139743)",42.39863916,-71.139743,North Cambridge
Baxter,Boxer,"(42.36662676, -71.11063929)",42.36662676,-71.11063929,Riverside
Baxter,Miniature Poodle,"(42.37649924, -71.14137855)",42.37649924,-71.14137855,West Cambridge
Baxter,Boxer,"(42.3740976, -71.09805577)",42.3740976,-71.09805577,Wellington-Harrington
Baxter,Beagle,"(42.3697984, -71.1240634)",42.3697984,-71.1240634,West Cambridge
Baxter (Bagle),Beagle,"(42.38999345, -71.14365395)",42.38999345,-71.14365395,Cambridge Highlands
Bay,Pit,"(42.36038158, -71.10637928)",42.36038158,-71.10637928,Cambridgeport
Baylee,Labrador Retriever Mix,"(42.38969168, -71.13837081)",42.38969168,-71.13837081,Neighborhood Nine
Baylee,Border Collie,"(42.39181241, -71.14674649)",42.39181241,-71.14674649,Cambridge Highlands
Bayles,German Shepherd,"(42.37966746, -71.14271945)",42.37966746,-71.14271945,West Cambridge
Bayou,Catahoula,"(42.37894962, -71.12328647)",42.37894962,-71.12328647,West Cambridge
Bazel,Keesehound,"(42.37970152, -71.1240846)",42.37970152,-71.1240846,Neighborhood Nine
Bea,Pug,"(42.37295459, -71.11046297)",42.37295459,-71.11046297,Mid-Cambridge
Beagle,Beagle,"(42.38416024, -71.12515052)",42.38416024,-71.12515052,Neighborhood Nine
Beale,Beagle,"(42.3861385, -71.13175036)",42.3861385,-71.13175036,Neighborhood Nine
Beamer,Golden Retriever,"(42.38874519, -71.14373021)",42.38874519,-71.14373021,Cambridge Highlands
Beamer,Pit Bull,"(42.35882817, -71.10717193)",42.35882817,-71.10717193,Cambridgeport
Beans,Lab / Shep,"(42.38013551, -71.1205035)",42.38013551,-71.1205035,Neighborhood Nine
Bear,Labrador Retriever,"(42.37720532, -71.13280364)",42.37720532,-71.13280364,West Cambridge
Bear,Hound,"(42.38567612, -71.1319864)",42.38567612,-71.1319864,Neighborhood Nine
Bear,Yorkshier Terrier,"(42.38123917, -71.12008472)",42.38123917,-71.12008472,Neighborhood Nine
Bear,Miniature Poodle,"(42.38466901, -71.13853131)",42.38466901,-71.13853131,West Cambridge
Bear,Mix,"(42.38245245, -71.13737408)",42.38245245,-71.13737408,West Cambridge
Bear,Chihuahua,"(42.36902985, -71.10535737)",42.36902985,-71.10535737,Mid-Cambridge
Bear,Bernese Mountain Dog,"(42.38214969, -71.11503428)",42.38214969,-71.11503428,Agassiz
Bear,Schnoodle,"(42.38017683, -71.12526176)",42.38017683,-71.12526176,Neighborhood Nine
Bear,Labrador Retriever Mix,"(42.37988158, -71.1443461)",42.37988158,-71.1443461,West Cambridge
Beasley,Border Collie,"(42.37125433, -71.08427778)",42.37125433,-71.08427778,East Cambridge
Beasley,Beagle,"(42.39553822, -71.1355942)",42.39553822,-71.1355942,North Cambridge
Beatrice,Golden Retriever,"(42.38540934, -71.13016289)",42.38540934,-71.13016289,Neighborhood Nine
Beatrice,Boxer Mix,"(42.3733287, -71.07826634)",42.3733287,-71.07826634,East Cambridge
Beatrice,Mix,"(42.37087312, -71.11014779)",42.37087312,-71.11014779,Mid-Cambridge
Beatrix,Schnoodle,"(42.39017924, -71.14372758)",42.39017924,-71.14372758,Cambridge Highlands
Beau,Golden Retriever,"(42.37448336, -71.14193853)",42.37448336,-71.14193853,West Cambridge
Beau,Bernese & Border Mix,"(42.39129978, -71.13858557)",42.39129978,-71.13858557,Neighborhood Nine
Beau,Chihuahua,"(42.36001973, -71.11103694)",42.36001973,-71.11103694,Cambridgeport
Beau,Shih Tzu,"(42.36581905, -71.09266038)",42.36581905,-71.09266038,The Port
Beau,Hound,"(42.3951342, -71.13182308)",42.3951342,-71.13182308,North Cambridge
Beau,Bernese Mountain Dog,"(42.37658617, -71.13254555)",42.37658617,-71.13254555,West Cambridge
Beau,Labrador Retriever,"(42.38760355, -71.13704784)",42.38760355,-71.13704784,Neighborhood Nine
Beau,German Shepherd,"(42.3670241, -71.10380474)",42.3670241,-71.10380474,Mid-Cambridge
Beau,Cavalier King Charles Spaniel,"(42.37810512, -71.11005757)",42.37810512,-71.11005757,Agassiz
Beaucoup,Mix,"(42.36537763, -71.11163384)",42.36537763,-71.11163384,Riverside
Beau Green,Standard Poodle,"(42.36890638, -71.09203774)",42.36890638,-71.09203774,Wellington-Harrington
Beau Kirpalani,Golden Doodle Mini,"(42.38246316, -71.11551324)",42.38246316,-71.11551324,Agassiz
Beba,Pekingese Mix,"(42.35942454, -71.10566207)",42.35942454,-71.10566207,Cambridgeport
Bebe,Chihuahua,"(42.37130048, -71.07990563)",42.37130048,-71.07990563,East Cambridge
Beckett,Carolina Dog,"(42.37053674, -71.10723795)",42.37053674,-71.10723795,Mid-Cambridge
Becky,Chihuahua,"(42.37923311, -71.15175527)",42.37923311,-71.15175527,Strawberry Hill
Becky,Affenpinscher,"(42.39031097, -71.12741903)",42.39031097,-71.12741903,Neighborhood Nine
Becky,,"(42.39144142, -71.14662987)",42.39144142,-71.14662987,Cambridge Highlands
Bee,Maltese,"(42.36759438, -71.09823929)",42.36759438,-71.09823929,The Port
Bee,Labrador Retriever,"(42.37160822, -71.08239196)",42.37160822,-71.08239196,East Cambridge
Beemo,Dachshund,"(42.37005142, -71.11051033)",42.37005142,-71.11051033,Mid-Cambridge
Beethoven,Peekapoo,"(42.36667219, -71.09540044)",42.36667219,-71.09540044,The Port
Beezus,Shi Tsu / Terrier / Mix,"(42.38714672, -71.11903876)",42.38714672,-71.11903876,Agassiz
Behr,Labrador Retriver,"(42.39264893, -71.13350216)",42.39264893,-71.13350216,North Cambridge
Bekka,Toy Poodle,"(42.37482594, -71.12983296)",42.37482594,-71.12983296,West Cambridge
Bela,Vizsla,"(42.3839137, -71.12072616)",42.3839137,-71.12072616,Neighborhood Nine
Belinda,Labradoodle,"(42.3851757, -71.13837799)",42.3851757,-71.13837799,Neighborhood Nine
Bella,Maltese,"(42.36644606, -71.09538168)",42.36644606,-71.09538168,The Port
Bella,Chihuahua,"(42.39648861, -71.13325211)",42.39648861,-71.13325211,North Cambridge
Bella,German Shepherd,"(42.37909619, -71.1199734)",42.37909619,-71.1199734,Neighborhood Nine
Bella,German Shepherd,"(42.37903525, -71.12038953)",42.37903525,-71.12038953,Neighborhood Nine
Bella,Golden Doodle,"(42.36691399, -71.11020574)",42.36691399,-71.11020574,Riverside
Bella,Labrabor Retriever,"(42.37025997, -71.07198737)",42.37025997,-71.07198737,East Cambridge
Bella,Miniature Schnauzer,"(42.35715312, -71.11075242)",42.35715312,-71.11075242,Cambridgeport
Bella,Yorkiepoo,"(42.36602919, -71.09344666)",42.36602919,-71.09344666,The Port
Bella,Great Pyrenees,"(42.36895321, -71.07127058)",42.36895321,-71.07127058,East Cambridge
Bella,Chow,"(42.37640958, -71.10507825)",42.37640958,-71.10507825,Mid-Cambridge
Bella,Poodle,"(42.37514312, -71.12989514)",42.37514312,-71.12989514,West Cambridge
Bella,West Highland White Terrier,"(42.39544178, -71.14273596)",42.39544178,-71.14273596,North Cambridge
Bella,Labrador Retriever,"(42.37175053, -71.07859472)",42.37175053,-71.07859472,East Cambridge
Bella,Dalmation,"(42.37979107, -71.1550985)",42.37979107,-71.1550985,Strawberry Hill
Bella,Maltese,"(42.3558983, -71.10715208)",42.3558983,-71.10715208,Cambridgeport
Bella,Maltese Shih Tzu,"(42.35603004, -71.1060487)",42.35603004,-71.1060487,Cambridgeport
Bella,Terrier,"(42.38900723, -71.12518204)",42.38900723,-71.12518204,North Cambridge
Bella,Cocker Spaniel,"(42.37178585, -71.08151591)",42.37178585,-71.08151591,East Cambridge
Bella,Yorksire Terrier,"(42.37382728, -71.096786)",42.37382728,-71.096786,Wellington-Harrington
Bella,Yorkie Terrier,"(42.37418184, -71.09247944)",42.37418184,-71.09247944,Wellington-Harrington
Bella,Labradoddle,"(42.37483629, -71.12997603)",42.37483629,-71.12997603,West Cambridge
Bella,Pomeranian,"(42.3898359, -71.13932574)",42.3898359,-71.13932574,Neighborhood Nine
Bella,Hound Mix,"(42.38600929, -71.1226729)",42.38600929,-71.1226729,Neighborhood Nine
Bella,Schnoodle,"(42.35571014, -71.11104329)",42.35571014,-71.11104329,Cambridgeport
Bella,Labrador Retriever,"(42.38603649, -71.1167619)",42.38603649,-71.1167619,Agassiz
Bella,Shep,"(42.38205098, -71.1144695)",42.38205098,-71.1144695,Agassiz
Bella,Beagle,"(42.37009903, -71.10102103)",42.37009903,-71.10102103,Mid-Cambridge
Bella,Golden Doodle,"(42.38285513, -71.14270591)",42.38285513,-71.14270591,West Cambridge
Bella,German Shepard,"(42.38007089, -71.14043119)",42.38007089,-71.14043119,West Cambridge
Bella,Chihuahua,"(42.39883021, -71.13678283)",42.39883021,-71.13678283,North Cambridge
Bella,Yorkie Terrier,"(42.36470602, -71.10412733)",42.36470602,-71.10412733,Cambridgeport
Bella,Pit Bull,"(42.37038663, -71.07973415)",42.37038663,-71.07973415,East Cambridge
Bella,Maltese,"(42.36257427, -71.11206169)",42.36257427,-71.11206169,Cambridgeport
Bella,Hound,"(42.38367216, -71.12909845)",42.38367216,-71.12909845,Neighborhood Nine
Bella,Goldendoodle,"(42.3734184, -71.08738112)",42.3734184,-71.08738112,Wellington-Harrington
Bella,Cairn Terrier,"(42.37627495, -71.13095703)",42.37627495,-71.13095703,West Cambridge
Bella,Yorksire Terrier,"(42.39807183, -71.13470546)",42.39807183,-71.13470546,North Cambridge
Bella,Dachshund,"(42.3685997, -71.08185014)",42.3685997,-71.08185014,East Cambridge
Bella,Pug,"(42.37990323, -71.1366659)",42.37990323,-71.1366659,West Cambridge
Bella,Maltese,"(42.38173067, -71.13740527)",42.38173067,-71.13740527,West Cambridge
Bella,Australian Shepherd,"(42.36013281, -71.1086822)",42.36013281,-71.1086822,Cambridgeport
Bella,Pit Bull,"(42.37138156, -71.08942021)",42.37138156,-71.08942021,Wellington-Harrington
Bella,German Shorthair Pointer,"(42.37023286, -71.07420567)",42.37023286,-71.07420567,East Cambridge
Bella,Chihuahua,"(42.386637, -71.13047546)",42.386637,-71.13047546,Neighborhood Nine
Bella,Labradoddle,"(42.37644137, -71.11177528)",42.37644137,-71.11177528,Mid-Cambridge
Bella,Bulldog,"(42.37242847, -71.1015862)",42.37242847,-71.1015862,Mid-Cambridge
Bella,Scottish Terrier,"(42.38468071, -71.12249715)",42.38468071,-71.12249715,Neighborhood Nine
Bella,Toy Poodle,"(42.39135497, -71.12279518)",42.39135497,-71.12279518,North Cambridge
Bella,Bernese Mountain Dog,"(42.37082248, -71.12059941)",42.37082248,-71.12059941,Riverside
Bella,Italian Greyhould,"(42.36427206, -71.10398986)",42.36427206,-71.10398986,Cambridgeport
Bella,Beagle,"(42.37481019, -71.1255541)",42.37481019,-71.1255541,West Cambridge
Bella Benson,Lab,"(42.38301813, -71.13375268)",42.38301813,-71.13375268,Neighborhood Nine
Bella Pezze,Boston Terrier,"(42.37314975, -71.08070893)",42.37314975,-71.08070893,East Cambridge
Belle,Labrador Retriever Mix,"(42.3710756, -71.08184346)",42.3710756,-71.08184346,East Cambridge
Belle,Labrador Retriever,"(42.38136504, -71.1208325)",42.38136504,-71.1208325,Neighborhood Nine
Belle,Husky,"(42.36049658, -71.11034249)",42.36049658,-71.11034249,Cambridgeport
Belle,Pomeranian,"(42.36362187, -71.10606606)",42.36362187,-71.10606606,Cambridgeport
Belle,Dachshund,"(42.39026459, -71.12561845)",42.39026459,-71.12561845,North Cambridge
Belle,Lab Mix,"(42.37133675, -71.09102976)",42.37133675,-71.09102976,Wellington-Harrington
Belle,Cocker Span Mix,"(42.38333875, -71.12629734)",42.38333875,-71.12629734,Neighborhood Nine
Belle,Hound,"(42.39071915, -71.12525391)",42.39071915,-71.12525391,North Cambridge
Bellina,Italian Grey Hound,"(42.38687658, -71.12937351)",42.38687658,-71.12937351,Neighborhood Nine
Bellman Ford,Goldedoodle,"(42.35574925, -71.11058386)",42.35574925,-71.11058386,Cambridgeport
Belmont,Beagle,"(42.37944065, -71.14510419)",42.37944065,-71.14510419,West Cambridge
Ben,Border Collie,"(42.37167296, -71.08330573)",42.37167296,-71.08330573,East Cambridge
Ben,Miniature Poodle,"(42.37413351, -71.12509239)",42.37413351,-71.12509239,West Cambridge
Ben,Standard Poodle,"(42.39280695, -71.14637769)",42.39280695,-71.14637769,Cambridge Highlands
Ben,Border Collie,"(42.35993202, -71.10717413)",42.35993202,-71.10717413,Cambridgeport
Ben Alan Donatello,Poodle,"(42.39105539, -71.14609992)",42.39105539,-71.14609992,Cambridge Highlands
Benji,Entlebucher Sennenhund,"(42.38483482, -71.12161658)",42.38483482,-71.12161658,Neighborhood Nine
Benji,Schnauzer,"(42.39715857, -71.13323572)",42.39715857,-71.13323572,North Cambridge
Benji,Soft Coated Wheaten Terrier,"(42.37815622, -71.12535391)",42.37815622,-71.12535391,West Cambridge
Benji,Soft C.Wheaton Ter,"(42.37956077, -71.12458648)",42.37956077,-71.12458648,West Cambridge
Benjy,English Shepherd,"(42.38143326, -71.1131246)",42.38143326,-71.1131246,Agassiz
Bennie,Yorkiepoo,"(42.36467539, -71.09275698)",42.36467539,-71.09275698,The Port
Benny,Dachshund,"(42.36944159, -71.09733126)",42.36944159,-71.09733126,The Port
Benny,Labrador Retriever,"(42.38323757, -71.12135151)",42.38323757,-71.12135151,Neighborhood Nine
Benny,Beagle,"(42.38655992, -71.13579502)",42.38655992,-71.13579502,Neighborhood Nine
Benny,Cocker Spaniel,"(42.36812386, -71.10507994)",42.36812386,-71.10507994,Mid-Cambridge
Benny,Yorkshire Terrier,"(42.37196963, -71.1094147)",42.37196963,-71.1094147,Mid-Cambridge
Benny,Bichon Frise,"(42.38214629, -71.11467283)",42.38214629,-71.11467283,Agassiz
Benson,Plott Hound Mix,"(42.3727769, -71.08179533)",42.3727769,-71.08179533,East Cambridge
Bentley,Pointer,"(42.39739506, -71.13160463)",42.39739506,-71.13160463,North Cambridge
Bentley,Sheltie,"(42.36979866, -71.10432253)",42.36979866,-71.10432253,Mid-Cambridge
Bentley,,"(42.3702014, -71.07428005)",42.3702014,-71.07428005,East Cambridge
Bentley,Black Lab Mix,"(42.37122624, -71.07376893)",42.37122624,-71.07376893,East Cambridge
Bentley,Terrier,"(42.36755593, -71.10653478)",42.36755593,-71.10653478,Mid-Cambridge
Bentley,Chihuaha,"(42.35827074, -71.11131531)",42.35827074,-71.11131531,Cambridgeport
Bentley,Lab Mix,"(42.36109485, -71.10872468)",42.36109485,-71.10872468,Cambridgeport
Bentley,Yorksire Terrier,"(42.37370375, -71.09111099)",42.37370375,-71.09111099,Wellington-Harrington
Bently,Shih Tzu,"(42.38929508, -71.1257126)",42.38929508,-71.1257126,Neighborhood Nine
Benton,Boxer American Bldog,"(42.40025135, -71.15266783)",42.40025135,-71.15266783,North Cambridge
Benyo,Spaniel,"(42.36931128, -71.09440296)",42.36931128,-71.09440296,Wellington-Harrington
Benzo,Dachshund,"(42.39154679, -71.12526005)",42.39154679,-71.12526005,North Cambridge
Benzoe,Dachshund,"(42.3903553, -71.12624981)",42.3903553,-71.12624981,North Cambridge
Bergthor,Mastiff,"(42.37891431, -71.11088673)",42.37891431,-71.11088673,Agassiz
Berkeley,Golden Doodle,"(42.3708859, -71.12296795)",42.3708859,-71.12296795,West Cambridge
Berkeley,Black Labrador Mix,"(42.38337259, -71.14250251)",42.38337259,-71.14250251,West Cambridge
Berkeley,Golden Retriever,"(42.3823349, -71.11444459)",42.3823349,-71.11444459,Agassiz
Bernadette,Terrier,"(42.38090032, -71.12849715)",42.38090032,-71.12849715,West Cambridge
Bernadette,Airedale,"(42.38660361, -71.13988108)",42.38660361,-71.13988108,Neighborhood Nine
Bernie,LABRADOODLE,"(42.3696828, -71.09903765)",42.3696828,-71.09903765,The Port
Bernie,Labrador Retriever,"(42.3788069, -71.12242078)",42.3788069,-71.12242078,Neighborhood Nine
Bernie Mcdonough,Labrador Retriever Mix,"(42.36785201, -71.09135537)",42.36785201,-71.09135537,Wellington-Harrington
Berry,Lhasa Apso,"(42.38876101, -71.1292626)",42.38876101,-71.1292626,Neighborhood Nine
Bert,Cairn Terrier,"(42.38088301, -71.1234255)",42.38088301,-71.1234255,Neighborhood Nine
Bertie,Bichon Frise,"(42.38356296, -71.12421763)",42.38356296,-71.12421763,Neighborhood Nine
Beskow,Basenji,"(42.3970596, -71.12786495)",42.3970596,-71.12786495,North Cambridge
Bess,Brittany Spaniel,"(42.37106223, -71.10593913)",42.37106223,-71.10593913,Mid-Cambridge
Bessie,BEAGLE,"(42.37182019, -71.07632052)",42.37182019,-71.07632052,East Cambridge
Bessie,Cockapoo,"(42.38182859, -71.13744527)",42.38182859,-71.13744527,West Cambridge
Betsy,Affenpinscher,"(42.38003949, -71.12804266)",42.38003949,-71.12804266,Neighborhood Nine
Betty,Bichon Frise,"(42.36000875, -71.11295545)",42.36000875,-71.11295545,Cambridgeport
Betty,Labrador Retriever Mix,"(42.37057123, -71.09993882)",42.37057123,-71.09993882,The Port
Betty,Cockapoo Mix,"(42.38380117, -71.13591167)",42.38380117,-71.13591167,Neighborhood Nine
Betty,Beagle Mix,"(42.39379741, -71.12778068)",42.39379741,-71.12778068,North Cambridge
Betty White-Paws (Betty),Austrailian Labradoodle,"(42.38932991, -71.13228772)",42.38932991,-71.13228772,Neighborhood Nine
Bhindy,Border Collie,"(42.37894859, -71.1287817)",42.37894859,-71.1287817,West Cambridge
Bianca,,"(42.38125898, -71.14115743)",42.38125898,-71.14115743,West Cambridge
Bib,Cockerpoo,"(42.38131536, -71.11067801)",42.38131536,-71.11067801,Agassiz
Biba,Shih Tzu,"(42.38034477, -71.11579339)",42.38034477,-71.11579339,Agassiz
Biddie,Pomeranian,"(42.3699795, -71.11041187)",42.3699795,-71.11041187,Mid-Cambridge
Biggie,Pug,"(42.37409256, -71.11004069)",42.37409256,-71.11004069,Mid-Cambridge
Bigsby,Miniature Poodle,"(42.35644981, -71.10795075)",42.35644981,-71.10795075,Cambridgeport
Bijou,Terrier,"(42.39029239, -71.1292394)",42.39029239,-71.1292394,North Cambridge
Biko,Vizsla,"(42.35731714, -71.09557473)",42.35731714,-71.09557473,Area 2/MIT
Bill,Ret,"(42.35704406, -71.10837923)",42.35704406,-71.10837923,Cambridgeport
Billie,Red Tick Coon Hound,"(42.37335273, -71.09152981)",42.37335273,-71.09152981,Wellington-Harrington
Billie,Australian Cattle Dog,"(42.38570969, -71.12614361)",42.38570969,-71.12614361,Neighborhood Nine
Bindi,Spaniel Mix,"(42.37886352, -71.14006097)",42.37886352,-71.14006097,West Cambridge
Bingo,Jack Russell Terrier Mix,"(42.39481877, -71.13178006)",42.39481877,-71.13178006,North Cambridge
Bingo,Chihuahua,"(42.36942796, -71.09843769)",42.36942796,-71.09843769,The Port
Bingo,Chihuahua,"(42.36923111, -71.09406235)",42.36923111,-71.09406235,Wellington-Harrington
Bingo Lindauer-Cohen,Golden Retriever,"(42.38213578, -71.13540369)",42.38213578,-71.13540369,West Cambridge
Bion,Wheaton Terrier,"(42.38223549, -71.13558629)",42.38223549,-71.13558629,West Cambridge
Birdie,,"(42.36854081, -71.08047829)",42.36854081,-71.08047829,East Cambridge
Birdie,Lab Retriever,"(42.37344583, -71.12493267)",42.37344583,-71.12493267,West Cambridge
Birdie,Mix,"(42.37977457, -71.13213248)",42.37977457,-71.13213248,West Cambridge
Birdie,Terrier Mix,"(42.36776177, -71.0804057)",42.36776177,-71.0804057,East Cambridge
Birdie,Labrador Retriever Mix,"(42.36935738, -71.11124696)",42.36935738,-71.11124696,Mid-Cambridge
Birdie,Labrador Retriever,"(42.37792208, -71.14152297)",42.37792208,-71.14152297,West Cambridge
Biscuit,Yorksire Terrier,"(42.36980144, -71.11383718)",42.36980144,-71.11383718,Mid-Cambridge
Biscuit,Terrier,"(42.39308093, -71.12621131)",42.39308093,-71.12621131,North Cambridge
Biscuit,Yorkie,"(42.37145073, -71.11383254)",42.37145073,-71.11383254,Mid-Cambridge
Biscuit Grape Juice,"Coonhound ,Tree Walker","(42.38439778, -71.11544129)",42.38439778,-71.11544129,Agassiz
Bise,German Shorthair Pointer,"(42.37811053, -71.1532913)",42.37811053,-71.1532913,Strawberry Hill
Bishop,Standard Poodle,"(42.36016757, -71.11046254)",42.36016757,-71.11046254,Cambridgeport
Bisou,Standard Poodle,"(42.3785446, -71.13869359)",42.3785446,-71.13869359,West Cambridge
Bitsy,Chihuahua,"(42.39531747, -71.14703836)",42.39531747,-71.14703836,North Cambridge
Bixby,Cockerpoo,"(42.37848078, -71.14229196)",42.37848078,-71.14229196,West Cambridge
Bj,Terrier,"(42.38956341, -71.14474226)",42.38956341,-71.14474226,Cambridge Highlands
Blackberry,Toy Poddle,"(42.39525052, -71.14297748)",42.39525052,-71.14297748,North Cambridge
Blackie,Shih Tzu,"(42.3605534, -71.10425602)",42.3605534,-71.10425602,Cambridgeport
Blackie,Cockerpoo,"(42.38406536, -71.13553459)",42.38406536,-71.13553459,West Cambridge
Blackjack,Cockerpoo,"(42.38740282, -71.13539033)",42.38740282,-71.13539033,Neighborhood Nine
Blake,Labrador Retriever,"(42.40159298, -71.13495498)",42.40159298,-71.13495498,North Cambridge
Blanca,Chihuahua Sh Mix,"(42.37114849, -71.07758024)",42.37114849,-71.07758024,East Cambridge
Blanco,,"(42.37727935, -71.15365592)",42.37727935,-71.15365592,Strawberry Hill
Blaze,English Labrador Retriever,"(42.38354561, -71.13602105)",42.38354561,-71.13602105,West Cambridge
Blaze,American Staffordshire Terrier,"(42.39640244, -71.12825171)",42.39640244,-71.12825171,North Cambridge
Blaze,Labrador Retriever,"(42.38355215, -71.13603913)",42.38355215,-71.13603913,West Cambridge
Blaze,Labrador Retriever,"(42.36792923, -71.10698711)",42.36792923,-71.10698711,Mid-Cambridge
Blitz,Portuguese Water Dog,"(42.38280323, -71.11490786)",42.38280323,-71.11490786,Agassiz
Blonkie,Bolonka,"(42.37526078, -71.13871253)",42.37526078,-71.13871253,West Cambridge
Blu,Italian Mastiff,"(42.39815948, -71.13552684)",42.39815948,-71.13552684,North Cambridge
Blu,Cocker Spaniel,"(42.36217939, -71.10776299)",42.36217939,-71.10776299,Cambridgeport
Blu,Italian Mastiff,"(42.39733529, -71.13471641)",42.39733529,-71.13471641,North Cambridge
Blue,Hound Mix,"(42.39504041, -71.1260883)",42.39504041,-71.1260883,North Cambridge
Blue,Labrador Retriever,"(42.39224395, -71.14541576)",42.39224395,-71.14541576,Cambridge Highlands
Blue,Hound Cross Mix,"(42.3751989, -71.13111601)",42.3751989,-71.13111601,West Cambridge
Blue,Mutt,"(42.36693272, -71.08220218)",42.36693272,-71.08220218,East Cambridge
Blue,Pitbull,"(42.36614795, -71.09888347)",42.36614795,-71.09888347,The Port
Bo,Labrador Retriever,"(42.39889827, -71.13755962)",42.39889827,-71.13755962,North Cambridge
Bo,Terrier,"(42.38211178, -71.11178254)",42.38211178,-71.11178254,Agassiz
Bob,Italian Greyhould,"(42.3683628, -71.10384914)",42.3683628,-71.10384914,Mid-Cambridge
Bob,,"(42.38208053, -71.13257138)",42.38208053,-71.13257138,West Cambridge
Bob,Miniature Poodle,"(42.36942649, -71.10037047)",42.36942649,-71.10037047,The Port
Boba,American Bulldog,"(42.39454033, -71.14642686)",42.39454033,-71.14642686,North Cambridge
Bobbie,Dachshund,"(42.36868735, -71.08166086)",42.36868735,-71.08166086,East Cambridge
Bobo,Pug,"(42.37547962, -71.13969301)",42.37547962,-71.13969301,West Cambridge
Bobo,Chihuahua,"(42.36456749, -71.10499128)",42.36456749,-71.10499128,Cambridgeport
Bobo,Pomeranian Mix,"(42.35927997, -71.11196355)",42.35927997,-71.11196355,Cambridgeport
Bode,Boston Terrier Mix,"(42.37265109, -71.08622971)",42.37265109,-71.08622971,East Cambridge
Bodhi,Yorkshire Terrier,"(42.38687259, -71.12067207)",42.38687259,-71.12067207,Neighborhood Nine
Bodi,Vizsla,"(42.37842529, -71.14217046)",42.37842529,-71.14217046,West Cambridge
Bodie,Leonberger,"(42.36426497, -71.11007505)",42.36426497,-71.11007505,Cambridgeport
Bodie,Vizsla,"(42.3711219, -71.11129203)",42.3711219,-71.11129203,Mid-Cambridge
Bodie,Vizsla,"(42.36739659, -71.10913432)",42.36739659,-71.10913432,Riverside
Bodie,Husky,"(42.37897043, -71.13444874)",42.37897043,-71.13444874,West Cambridge
Bodie,Goldendoodle,"(42.37732225, -71.12306967)",42.37732225,-71.12306967,Neighborhood Nine
Bodo,Rat Terrier,"(42.37753335, -71.15016533)",42.37753335,-71.15016533,Strawberry Hill
Bogart,Bernese Mountain Dog,"(42.38262302, -71.13664538)",42.38262302,-71.13664538,West Cambridge
Bogey,Australian Shepherd,"(42.37069768, -71.09846087)",42.37069768,-71.09846087,The Port
Bogie,Field Spaniel,"(42.39947445, -71.12973957)",42.39947445,-71.12973957,North Cambridge
Bohdi,Portuguese Water Dog,"(42.37567497, -71.1305529)",42.37567497,-71.1305529,West Cambridge
Bohdi,Great Swiss Mountain Dog,"(42.36742687, -71.10854361)",42.36742687,-71.10854361,Mid-Cambridge
Bolt,Basenji,"(42.35901343, -71.10889856)",42.35901343,-71.10889856,Cambridgeport
Bomi,Great Pyrenese,"(42.3822093, -71.13294709)",42.3822093,-71.13294709,West Cambridge
Bondi,German Shepherd,"(42.36821319, -71.08513422)",42.36821319,-71.08513422,East Cambridge
Bone,Jack Russel Terrier,"(42.37970185, -71.14272934)",42.37970185,-71.14272934,West Cambridge
Bonita,Labrador Retriever,"(42.3924076, -71.12152364)",42.3924076,-71.12152364,North Cambridge
Bonnie,Chihuahua,"(42.39439289, -71.13909403)",42.39439289,-71.13909403,North Cambridge
Bonnie,Cockerpoo,"(42.39560175, -71.13268944)",42.39560175,-71.13268944,North Cambridge
Bonnie,Miniature Pinscher,"(42.37531846, -71.12528124)",42.37531846,-71.12528124,West Cambridge
Bonnie,Miniature Dachshund,"(42.39142856, -71.14609093)",42.39142856,-71.14609093,Cambridge Highlands
Bonnie Killeen,Labrador Ter Mix,"(42.39613838, -71.14761153)",42.39613838,-71.14761153,North Cambridge
Bono,Cockerpoo,"(42.3986456, -71.13895531)",42.3986456,-71.13895531,North Cambridge
Bonus,LABRADOR Retriever,"(42.38026789, -71.14187284)",42.38026789,-71.14187284,West Cambridge
Bonzai,Aust Shep,"(42.37055491, -71.07789909)",42.37055491,-71.07789909,East Cambridge
Bonzai,Australian Shepherd,"(42.39529794, -71.14767205)",42.39529794,-71.14767205,North Cambridge
Boo,Labrador Retriever,"(42.38619773, -71.13606316)",42.38619773,-71.13606316,Neighborhood Nine
Boo,Shih Tzu,"(42.39896577, -71.13919688)",42.39896577,-71.13919688,North Cambridge
Boo,Terrier Mix,"(42.38179621, -71.11958709)",42.38179621,-71.11958709,Agassiz
Boo,Border Collie,"(42.36780974, -71.09490698)",42.36780974,-71.09490698,The Port
Boo,English Cocker,"(42.38412029, -71.11380385)",42.38412029,-71.11380385,NA
Boo,Cavalier King Charles/Mix,"(42.35805638, -71.11230814)",42.35805638,-71.11230814,Cambridgeport
Boo,Beagle,"(42.3663542, -71.10979427)",42.3663542,-71.10979427,Riverside
Booboo,Pug,"(42.37597949, -71.13918784)",42.37597949,-71.13918784,West Cambridge
Boo Boo,Mix,"(42.40012882, -71.1338273)",42.40012882,-71.1338273,North Cambridge
Boof,Pit Bull,"(42.37314027, -71.0895703)",42.37314027,-71.0895703,Wellington-Harrington
Boomer,Labradoddle,"(42.37820297, -71.1348886)",42.37820297,-71.1348886,West Cambridge
Boomer,Labrador Retriever,"(42.36795314, -71.09841918)",42.36795314,-71.09841918,The Port
Boomer,Labrador Beagle Mix,"(42.36960051, -71.09166904)",42.36960051,-71.09166904,Wellington-Harrington
Boomie,Chihuahua,"(42.38603518, -71.11988993)",42.38603518,-71.11988993,Neighborhood Nine
Boone,Golden Doodle,"(42.36387731, -71.1098599)",42.36387731,-71.1098599,Cambridgeport
Boots,Shih Tzu,"(42.38708691, -71.12736404)",42.38708691,-71.12736404,Neighborhood Nine
Boots,Yorksire Terrier,"(42.3681202, -71.10264274)",42.3681202,-71.10264274,The Port
Boots,Labrador Retriever,"(42.37695333, -71.10578033)",42.37695333,-71.10578033,Mid-Cambridge
Bootsy,French Bulldog,"(42.36308602, -71.08297292)",42.36308602,-71.08297292,East Cambridge
Bosco,Mix,"(42.37666821, -71.10957221)",42.37666821,-71.10957221,Mid-Cambridge
Bosco,Greyhound,"(42.38008858, -71.1398299)",42.38008858,-71.1398299,West Cambridge
Bosco,Labrador Retriever,"(42.39238822, -71.12103314)",42.39238822,-71.12103314,North Cambridge
Bosco,Labrador Retriever,"(42.39904213, -71.1388746)",42.39904213,-71.1388746,North Cambridge
Bosley,Minature Australian Shepherd,"(42.38308686, -71.14015396)",42.38308686,-71.14015396,West Cambridge
Boss,Bullmastiff,"(42.35733932, -71.11166404)",42.35733932,-71.11166404,Cambridgeport
Boss Dog,Schipperkee,"(42.36980639, -71.11055423)",42.36980639,-71.11055423,Mid-Cambridge
Boston,Pitbull,"(42.36912559, -71.08326541)",42.36912559,-71.08326541,East Cambridge
Boston,Boston Terrier,"(42.36563913, -71.09762439)",42.36563913,-71.09762439,The Port
Boswell,Cocker Spaniel,"(42.37787601, -71.13536005)",42.37787601,-71.13536005,West Cambridge
Boudica,Airedale,"(42.38345905, -71.12913252)",42.38345905,-71.12913252,Neighborhood Nine
Bouncer,Shih Tzu,"(42.36770731, -71.09213599)",42.36770731,-71.09213599,Wellington-Harrington
Bow,Poodle,"(42.38986733, -71.12387043)",42.38986733,-71.12387043,North Cambridge
Bowie,Vizsla,"(42.39989549, -71.12981526)",42.39989549,-71.12981526,North Cambridge
Bowie,Golden Retriever,"(42.38341314, -71.13588629)",42.38341314,-71.13588629,West Cambridge
Bowie,Boston Teerrier,"(42.37061962, -71.10574495)",42.37061962,-71.10574495,Mid-Cambridge
Bowie,Dachshund,"(42.37480849, -71.13186812)",42.37480849,-71.13186812,West Cambridge
Bowser,Mix,"(42.37120156, -71.08214335)",42.37120156,-71.08214335,East Cambridge
Box,Collie Mix,"(42.3975694, -71.12931393)",42.3975694,-71.12931393,North Cambridge
Boysie,Beagle,"(42.36021507, -71.105456)",42.36021507,-71.105456,Cambridgeport
Bracket,Labrador Retriever Mix,"(42.36738067, -71.1102935)",42.36738067,-71.1102935,Riverside
Bradley,Heeler Border Collie Mix,"(42.39812462, -71.13060734)",42.39812462,-71.13060734,North Cambridge
Bradley,Golden Retriever,"(42.35842822, -71.11330935)",42.35842822,-71.11330935,Cambridgeport
Brady,Beagle,"(42.36926519, -71.09102114)",42.36926519,-71.09102114,Wellington-Harrington
Brady,Shar Pei,"(42.3829867, -71.13286799)",42.3829867,-71.13286799,Neighborhood Nine
Brady,Pomeranian & Shih Tzu Mix,"(42.39457283, -71.14641411)",42.39457283,-71.14641411,North Cambridge
Brady,Maltese Mix,"(42.38746205, -71.12432109)",42.38746205,-71.12432109,Neighborhood Nine
Brady,Beagle,"(42.39393222, -71.13569077)",42.39393222,-71.13569077,North Cambridge
Brady,,"(42.36922449, -71.1139705)",42.36922449,-71.1139705,Riverside
Brady,Poodle,"(42.38086811, -71.12894849)",42.38086811,-71.12894849,West Cambridge
Brady,Pit Bull,"(42.37744284, -71.15051201)",42.37744284,-71.15051201,Strawberry Hill
Brandy,Dachshund,"(42.37127948, -71.09708422)",42.37127948,-71.09708422,Wellington-Harrington
Bravos,Pitbull Mix,"(42.37174176, -71.09085852)",42.37174176,-71.09085852,Wellington-Harrington
Bree,American Pit Bull Terrier,"(42.39231213, -71.12857735)",42.39231213,-71.12857735,North Cambridge
Brenda,Brussels Griffon,"(42.39232569, -71.12628103)",42.39232569,-71.12628103,North Cambridge
Brenda Emmons-Melgar,Brussel Griffon,"(42.39256028, -71.12608071)",42.39256028,-71.12608071,North Cambridge
Brenna,Labrador Retriever,"(42.35814806, -71.11260972)",42.35814806,-71.11260972,Cambridgeport
Brewster,Pointer,"(42.38268786, -71.11493991)",42.38268786,-71.11493991,Agassiz
Brewster,Corgi/Sheltie Mix,"(42.39037641, -71.13226626)",42.39037641,-71.13226626,North Cambridge
Bridge,Plott Hound,"(42.38498025, -71.1305394)",42.38498025,-71.1305394,Neighborhood Nine
Bridger,German Wirehaired Pointer,"(42.39655878, -71.13791435)",42.39655878,-71.13791435,North Cambridge
Bridget,Chihuahua,"(42.38472637, -71.1155937)",42.38472637,-71.1155937,Agassiz
Bridget,English Shepherd,"(42.3688742, -71.08379356)",42.3688742,-71.08379356,East Cambridge
Brillo,Dachshund,"(42.36883144, -71.11609148)",42.36883144,-71.11609148,Riverside
Bristol,Labrador Retriever,"(42.38517847, -71.13094257)",42.38517847,-71.13094257,Neighborhood Nine
Brody,Wheaton Terrier,"(42.39106316, -71.1221801)",42.39106316,-71.1221801,North Cambridge
Brody,LEONBERGER,"(42.35820817, -71.11334093)",42.35820817,-71.11334093,Cambridgeport
Brody,Terrier,"(42.37400664, -71.09624795)",42.37400664,-71.09624795,Wellington-Harrington
Brody,Poodle,"(42.36978729, -71.10833357)",42.36978729,-71.10833357,Mid-Cambridge
Broja,Labrador Retriever Mix,"(42.3831607, -71.13200104)",42.3831607,-71.13200104,Neighborhood Nine
Bronson,Keeshond Mix,"(42.39202856, -71.14538804)",42.39202856,-71.14538804,Cambridge Highlands
Bronson,LABRADOR Retriever,"(42.37074581, -71.07366007)",42.37074581,-71.07366007,East Cambridge
Bronx,Labrador Retriever Mix,"(42.38441882, -71.14014396)",42.38441882,-71.14014396,West Cambridge
Brooklyn,Boxer,"(42.38412702, -71.11515999)",42.38412702,-71.11515999,Agassiz
Brou,Cairn Terr,"(42.36423132, -71.11060047)",42.36423132,-71.11060047,Riverside
Brown Boy,,"(42.38135011, -71.13796725)",42.38135011,-71.13796725,West Cambridge
Brownie,English Spaniel Springer,"(42.370915, -71.07972859)",42.370915,-71.07972859,East Cambridge
Brownie,German Shepherd Mix,"(42.35665466, -71.11024998)",42.35665466,-71.11024998,Cambridgeport
Brownie,Labrador Retriever,"(42.39981306, -71.13503408)",42.39981306,-71.13503408,North Cambridge
Bruce,Yorksire Terrier,"(42.36472373, -71.10723672)",42.36472373,-71.10723672,Riverside
Bruce,Corgi,"(42.35909156, -71.08570097)",42.35909156,-71.08570097,Area 2/MIT
Bruce,Chihuahua,"(42.37813861, -71.14668385)",42.37813861,-71.14668385,West Cambridge
Bruce,Bull Terrier,"(42.36409493, -71.10307588)",42.36409493,-71.10307588,Cambridgeport
Bruin,Australian Shepherd,"(42.39281669, -71.14636274)",42.39281669,-71.14636274,Cambridge Highlands
Bruiser,Pit Bull,"(42.36940727, -71.08311497)",42.36940727,-71.08311497,East Cambridge
Brumby,Jack Russ. Terr.,"(42.38249741, -71.12383484)",42.38249741,-71.12383484,Neighborhood Nine
Bruno,Australian Shepherd,"(42.36460324, -71.08306056)",42.36460324,-71.08306056,East Cambridge
Bruno,,"(42.36877946, -71.092611)",42.36877946,-71.092611,Wellington-Harrington
Bruno,Dalmation,"(42.3926638, -71.15677244)",42.3926638,-71.15677244,Cambridge Highlands
Bruno,German Shepherd,"(42.37174735, -71.09779499)",42.37174735,-71.09779499,The Port
Bruno,,"(42.39208652, -71.12152703)",42.39208652,-71.12152703,North Cambridge
Bru Schellhorn,Rhodesian Ridgeback Mix,"(42.35840877, -71.11054995)",42.35840877,-71.11054995,Cambridgeport
Bruto,Cane Corso,"(42.38971965, -71.1214524)",42.38971965,-71.1214524,North Cambridge
Brutus,Rhodesian Ridgeback,"(42.37400339, -71.1082274)",42.37400339,-71.1082274,Mid-Cambridge
Brutus,Rat Terr,"(42.35846907, -71.10833018)",42.35846907,-71.10833018,Cambridgeport
Bubak,Cavapoo,"(42.37021083, -71.07456086)",42.37021083,-71.07456086,East Cambridge
Bubba,Old English Bulldog,"(42.37268526, -71.09770363)",42.37268526,-71.09770363,Wellington-Harrington
Bubba Arthur,Yorkshire Terrier / Shih Tzu,"(42.38588954, -71.11972529)",42.38588954,-71.11972529,Neighborhood Nine
Bubbles,Pug,"(42.39963442, -71.14097673)",42.39963442,-71.14097673,North Cambridge
Bubbles,Yorksire Terrier,"(42.36446988, -71.10127158)",42.36446988,-71.10127158,The Port
Buca,Yorkshire Terrier,"(42.37194282, -71.07472488)",42.37194282,-71.07472488,East Cambridge
Buca,Yorksire Terrier,"(42.37012683, -71.07432308)",42.37012683,-71.07432308,East Cambridge
Buck,Weimaramer,"(42.37983922, -71.11063939)",42.37983922,-71.11063939,Agassiz
Buckle,Portuguese Water Dog,"(42.37556028, -71.13945216)",42.37556028,-71.13945216,West Cambridge
Buckley,Labrador Retriever,"(42.35912555, -71.11317025)",42.35912555,-71.11317025,Cambridgeport
Bucky,Poodle (Standard),"(42.37713548, -71.13374271)",42.37713548,-71.13374271,West Cambridge
Bucya,Yorkshire Terrier,"(42.37106798, -71.07498804)",42.37106798,-71.07498804,East Cambridge
Buda,Vizsla,"(42.36671325, -71.0934527)",42.36671325,-71.0934527,The Port
Buddha,Chihuahua,"(42.3845337, -71.13792189)",42.3845337,-71.13792189,West Cambridge
Buddha,Chihuahua,"(42.38285669, -71.13735182)",42.38285669,-71.13735182,West Cambridge
Buddy,American Pit Bull Terr,"(42.37437409, -71.09558689)",42.37437409,-71.09558689,Wellington-Harrington
Buddy,Pug,"(42.39482448, -71.13297509)",42.39482448,-71.13297509,North Cambridge
Buddy,Shih Tzu,"(42.37733836, -71.10856923)",42.37733836,-71.10856923,Mid-Cambridge
Buddy,Labrador Retriever,"(42.39751258, -71.13687213)",42.39751258,-71.13687213,North Cambridge
Buddy,Manchester Terrier,"(42.36461303, -71.08373561)",42.36461303,-71.08373561,East Cambridge
Buddy,Beagle,"(42.38304451, -71.11662685)",42.38304451,-71.11662685,Agassiz
Buddy,Bichon Frise,"(42.363578, -71.1084344)",42.363578,-71.1084344,Cambridgeport
Buddy,Maltipoo,"(42.36837085, -71.11291041)",42.36837085,-71.11291041,Riverside
Buddy,Cocker Spaniel,"(42.3598783, -71.08842502)",42.3598783,-71.08842502,Area 2/MIT
Buddy,Labrador Retriever,"(42.36329996, -71.1080662)",42.36329996,-71.1080662,Cambridgeport
Buddy,Labrador Retriever Mix,"(42.39389744, -71.12625196)",42.39389744,-71.12625196,North Cambridge
Buddy,Dachshund Mix,"(42.36277025, -71.10520448)",42.36277025,-71.10520448,Cambridgeport
Buddy,Pointer,"(42.37313614, -71.09788128)",42.37313614,-71.09788128,Wellington-Harrington
Buddy,Shep,"(42.37232116, -71.08597672)",42.37232116,-71.08597672,East Cambridge
Buddy,Pomerainian,"(42.36974975, -71.10449829)",42.36974975,-71.10449829,Mid-Cambridge
Buddy,Pug Chihuahua,"(42.39861394, -71.13123539)",42.39861394,-71.13123539,North Cambridge
Buddy,Bichon Frise,"(42.39752188, -71.1362696)",42.39752188,-71.1362696,North Cambridge
Buddy,Lab Mix,"(42.36779056, -71.10634423)",42.36779056,-71.10634423,Mid-Cambridge
Buddy,Yorksire Terrier,"(42.37065033, -71.08535873)",42.37065033,-71.08535873,East Cambridge
Buddy,Spaniel,"(42.39449981, -71.1267423)",42.39449981,-71.1267423,North Cambridge
Buddy,Dachshund,"(42.38282981, -71.11679895)",42.38282981,-71.11679895,Agassiz
Buddy,Great Pyrenese,"(42.38839216, -71.12617356)",42.38839216,-71.12617356,Neighborhood Nine
Buffy,Pitbull Mix,"(42.40244211, -71.13249548)",42.40244211,-71.13249548,North Cambridge
Buffy,Greyhound,"(42.36900767, -71.09316788)",42.36900767,-71.09316788,Wellington-Harrington
Bug,Boston Terr,"(42.39952112, -71.13371042)",42.39952112,-71.13371042,North Cambridge
Buggs,Staffordshire Terrier,"(42.38998426, -71.14478748)",42.38998426,-71.14478748,Cambridge Highlands
Bugs,American Bull Dog,"(42.35941596, -71.10689122)",42.35941596,-71.10689122,Cambridgeport
Bugsy,Pit Bull Mix,"(42.36788396, -71.09061876)",42.36788396,-71.09061876,Wellington-Harrington
Bumper,Labradoddle,"(42.37373672, -71.10562333)",42.37373672,-71.10562333,Mid-Cambridge
Bunk,Toy Australian Shepherd,"(42.36646923, -71.0828867)",42.36646923,-71.0828867,East Cambridge
Bunker,Wheaten Terrier,"(42.38050267, -71.12170237)",42.38050267,-71.12170237,Neighborhood Nine
Bunker,Springer Spaniel,"(42.36464009, -71.10665877)",42.36464009,-71.10665877,Riverside
Bunny,Miniature Poodle,"(42.3786526, -71.12601353)",42.3786526,-71.12601353,Neighborhood Nine
Buoy,Golden Retriever,"(42.37883941, -71.14100627)",42.37883941,-71.14100627,West Cambridge
Burbuja,Toy Poodle,"(42.37340815, -71.10403009)",42.37340815,-71.10403009,Mid-Cambridge
Burdick,Labrador Retriever,"(42.36943836, -71.11208616)",42.36943836,-71.11208616,Mid-Cambridge
Buri,Thai Mix,"(42.3955432, -71.14757468)",42.3955432,-71.14757468,North Cambridge
Burtie,Welsh Terrier,"(42.37722374, -71.13793511)",42.37722374,-71.13793511,West Cambridge
Bustah,Dachshund,"(42.37156381, -71.07738359)",42.37156381,-71.07738359,East Cambridge
Buster,Brittany Spaniel,"(42.37677736, -71.14871831)",42.37677736,-71.14871831,Strawberry Hill
Buster,Shih Tzu,"(42.39937326, -71.12921571)",42.39937326,-71.12921571,NA
Buster,Boston Terrier,"(42.37071594, -71.07166561)",42.37071594,-71.07166561,East Cambridge
Buster,Jack Russel Terrier,"(42.39446051, -71.13365283)",42.39446051,-71.13365283,North Cambridge
Busy,Cairn Terr.,"(42.36420753, -71.10738912)",42.36420753,-71.10738912,Cambridgeport
Busy,Cairn Terrier,"(42.36367432, -71.1073127)",42.36367432,-71.1073127,Cambridgeport
Buttercup,BOSTON TERRIER,"(42.37135455, -71.08497524)",42.37135455,-71.08497524,East Cambridge
Buttercup,Beagle/Dachshund Mix,"(42.37868047, -71.12558172)",42.37868047,-71.12558172,West Cambridge
Buttercup,Mix,"(42.39196034, -71.12405563)",42.39196034,-71.12405563,North Cambridge
Butters,Pug,"(42.37283116, -71.07228926)",42.37283116,-71.07228926,East Cambridge
Cadence,German Shepherd Mix,"(42.39551385, -71.12810076)",42.39551385,-71.12810076,North Cambridge
Caico,Lab,"(42.36406565, -71.08414739)",42.36406565,-71.08414739,East Cambridge
Caico,Labrabor Retriever,"(42.36486114, -71.08327956)",42.36486114,-71.08327956,East Cambridge
Caleb,West Highland White Terrier,"(42.37239619, -71.09002884)",42.37239619,-71.09002884,Wellington-Harrington
Caliban,Bearded Collie,"(42.38830658, -71.1270942)",42.38830658,-71.1270942,Neighborhood Nine
Callie,Golden Retriever,"(42.40180367, -71.1326566)",42.40180367,-71.1326566,North Cambridge
Callie,Shih Tzu,"(42.38982103, -71.12195175)",42.38982103,-71.12195175,North Cambridge
Callie,Beagle,"(42.36875237, -71.08997212)",42.36875237,-71.08997212,Wellington-Harrington
Callie,Beagle,"(42.37068612, -71.10220928)",42.37068612,-71.10220928,Mid-Cambridge
Callie,Beagle,"(42.36833809, -71.08975597)",42.36833809,-71.08975597,Wellington-Harrington
Callie,Mutt-Shepherd Mix,"(42.35882949, -71.10899911)",42.35882949,-71.10899911,Cambridgeport
Callie,Sato,"(42.38654128, -71.12797268)",42.38654128,-71.12797268,Neighborhood Nine
Callie,Hound,"(42.38444095, -71.13850636)",42.38444095,-71.13850636,West Cambridge
Callie,Labrador Retriever,"(42.39131936, -71.14655246)",42.39131936,-71.14655246,Cambridge Highlands
Callie,Miniature Pinscher,"(42.37013026, -71.07157575)",42.37013026,-71.07157575,East Cambridge
Callie,Beagle Mix,"(42.36839489, -71.11366362)",42.36839489,-71.11366362,Riverside
Callie,Dachshund/Pinscher,"(42.36855009, -71.07157288)",42.36855009,-71.07157288,East Cambridge
Calliope,Whippet,"(42.36302525, -71.11505647)",42.36302525,-71.11505647,Riverside
Calliope,Labrador Retriever,"(42.37957719, -71.12484939)",42.37957719,-71.12484939,West Cambridge
Callisto,Labrador Retriever,"(42.37793199, -71.12493004)",42.37793199,-71.12493004,West Cambridge
Calypso,Boxer,"(42.37288623, -71.082133)",42.37288623,-71.082133,East Cambridge
Calypso,Mix,"(42.37554563, -71.13057919)",42.37554563,-71.13057919,West Cambridge
Cambridge,Beagle,"(42.37988933, -71.14401044)",42.37988933,-71.14401044,West Cambridge
Camila,Chihuahua Mix,"(42.36336607, -71.10719963)",42.36336607,-71.10719963,Cambridgeport
Cammi,Portuguese Water Dog,"(42.37724989, -71.12667292)",42.37724989,-71.12667292,West Cambridge
Candy,Toy Poodle,"(42.37124653, -71.07194241)",42.37124653,-71.07194241,East Cambridge
Canela,German Shepherd,"(42.39629841, -71.13572615)",42.39629841,-71.13572615,North Cambridge
Cannoli,Shih -Tzu,"(42.36955072, -71.07205751)",42.36955072,-71.07205751,East Cambridge
Cannoli,Hound Mix,"(42.37744905, -71.15234693)",42.37744905,-71.15234693,Strawberry Hill
Canoli,Shih Tzu,"(42.37645283, -71.15073274)",42.37645283,-71.15073274,Strawberry Hill
Canto,Siberian Husky,"(42.37322144, -71.11121894)",42.37322144,-71.11121894,Mid-Cambridge
Capone,Pit Bull,"(42.36404463, -71.10331796)",42.36404463,-71.10331796,Cambridgeport
Captain,Labrador Retriever,"(42.35673375, -71.10755441)",42.35673375,-71.10755441,Cambridgeport
Captain Marvel,Jack Russel Terrier,"(42.37426468, -71.13859141)",42.37426468,-71.13859141,West Cambridge
Captin,Labrador Retriever,"(42.36858594, -71.09138491)",42.36858594,-71.09138491,Wellington-Harrington
Carino,Terrier Mix,"(42.36642809, -71.10957445)",42.36642809,-71.10957445,Riverside
Carley,Brittany Spaniel,"(42.39843428, -71.13355483)",42.39843428,-71.13355483,North Cambridge
Carley,Golden Retriever,"(42.39964762, -71.12991162)",42.39964762,-71.12991162,North Cambridge
Carlisle,American Foxhound,"(42.38835529, -71.12002351)",42.38835529,-71.12002351,North Cambridge
Carlo,Miniature Poodle,"(42.3693662, -71.09900056)",42.3693662,-71.09900056,The Port
Carlo,Dachshund,"(42.37835227, -71.14638237)",42.37835227,-71.14638237,West Cambridge
Carlo,German Shepherd,"(42.36917892, -71.09915475)",42.36917892,-71.09915475,The Port
Carlos,French Bulldog,"(42.36941568, -71.11098976)",42.36941568,-71.11098976,Mid-Cambridge
Carlos,Puggle,"(42.37048611, -71.07430365)",42.37048611,-71.07430365,East Cambridge
Carlton,Labrador Retriever,"(42.38509062, -71.12920741)",42.38509062,-71.12920741,Neighborhood Nine
Carmello,Corgi Mix,"(42.36901674, -71.07475118)",42.36901674,-71.07475118,East Cambridge
Carmelo,Vizsla,"(42.37988548, -71.1380056)",42.37988548,-71.1380056,West Cambridge
Carson,Mix,"(42.38204377, -71.14158803)",42.38204377,-71.14158803,West Cambridge
Casca,Beagle,"(42.38440797, -71.11853348)",42.38440797,-71.11853348,Agassiz
Case,Golden Retriever,"(42.37524031, -71.14068751)",42.37524031,-71.14068751,West Cambridge
Casey,Border Collie,"(42.37594692, -71.15034493)",42.37594692,-71.15034493,Strawberry Hill
Casey,Pit Bull,"(42.3736247, -71.10284289)",42.3736247,-71.10284289,Mid-Cambridge
Casey,Golden Doodle,"(42.37027781, -71.0942068)",42.37027781,-71.0942068,Wellington-Harrington
Casey,Labrador Retriever,"(42.37346851, -71.10094669)",42.37346851,-71.10094669,Mid-Cambridge
Casey,Border Collie,"(42.37765438, -71.14357231)",42.37765438,-71.14357231,West Cambridge
Cash,Labrador Retriever,"(42.36994539, -71.0968193)",42.36994539,-71.0968193,Wellington-Harrington
Casi,Yorkshire Terrier,"(42.36636899, -71.10082521)",42.36636899,-71.10082521,The Port
Casper,Silky Terrier,"(42.3733967, -71.10629598)",42.3733967,-71.10629598,Mid-Cambridge
Casper,Spaniel,"(42.37229949, -71.11114735)",42.37229949,-71.11114735,Mid-Cambridge
Casper,Labrador Retriever,"(42.37785532, -71.12933448)",42.37785532,-71.12933448,West Cambridge
Cassidy,Australian Shepherd,"(42.37753906, -71.14674918)",42.37753906,-71.14674918,West Cambridge
Cassie,Corgi,"(42.37917576, -71.11047447)",42.37917576,-71.11047447,Agassiz
Cassie,Golden Retriever,"(42.39585822, -71.14822004)",42.39585822,-71.14822004,North Cambridge
Cassie,Labrador Retriever,"(42.37578997, -71.12544295)",42.37578997,-71.12544295,West Cambridge
Cassius,Boxer,"(42.39002955, -71.12706875)",42.39002955,-71.12706875,Neighborhood Nine
Cassius,Boxer,"(42.37387178, -71.10323446)",42.37387178,-71.10323446,Mid-Cambridge
Cassius,Boxer,"(42.4000428, -71.13056604)",42.4000428,-71.13056604,North Cambridge
Cati,Dachshund,"(42.37335742, -71.09190837)",42.37335742,-71.09190837,Wellington-Harrington
Catie,Labrador Retriever,"(42.38236389, -71.14372017)",42.38236389,-71.14372017,West Cambridge
Cato,Jack Russell Terrier,"(42.39865076, -71.12944133)",42.39865076,-71.12944133,NA
Cato,Golden Doodle,"(42.35976432, -71.11093922)",42.35976432,-71.11093922,Cambridgeport
Cauchy,Border Collie,"(42.37758373, -71.1109588)",42.37758373,-71.1109588,Mid-Cambridge
Caz,Golden Doodle,"(42.38235706, -71.14084946)",42.38235706,-71.14084946,West Cambridge
Ceasar,Maltese,"(42.36932059, -71.09943903)",42.36932059,-71.09943903,The Port
Cecilia Christina Steinhardt,Shih Tzu,"(42.38675673, -71.13930607)",42.38675673,-71.13930607,Neighborhood Nine
Celeste,Poodle,"(42.37774283, -71.11016734)",42.37774283,-71.11016734,Agassiz
Cello,Samoyed,"(42.37612468, -71.14639629)",42.37612468,-71.14639629,West Cambridge
Cerberus,Terrier Mix,"(42.38932199, -71.1241001)",42.38932199,-71.1241001,Neighborhood Nine
Chachi,Yorksire Terrier,"(42.36824104, -71.10411744)",42.36824104,-71.10411744,Mid-Cambridge
Chadwick,Mix,"(42.36554064, -71.10099674)",42.36554064,-71.10099674,The Port
Chai,Pit Bull,"(42.37467544, -71.10579778)",42.37467544,-71.10579778,Mid-Cambridge
Chai,Golden Retriever,"(42.36272674, -71.07731445)",42.36272674,-71.07731445,East Cambridge
Champ,Cocker Spaniel,"(42.36024165, -71.10959059)",42.36024165,-71.10959059,Cambridgeport
Champ,Boxer Mix,"(42.35813439, -71.10770523)",42.35813439,-71.10770523,Cambridgeport
Champ,Pit Bull,"(42.36883032, -71.08969269)",42.36883032,-71.08969269,Wellington-Harrington
Chance,Hound,"(42.37216501, -71.08900874)",42.37216501,-71.08900874,Wellington-Harrington
Chance,Papillon,"(42.3679032, -71.10824981)",42.3679032,-71.10824981,Riverside
Chance,Dachshund,"(42.37587394, -71.15176567)",42.37587394,-71.15176567,Strawberry Hill
Chance,Foxhound,"(42.35652265, -71.1074977)",42.35652265,-71.1074977,Cambridgeport
Chance,Golden Doodle,"(42.39440868, -71.1556924)",42.39440868,-71.1556924,Cambridge Highlands
Channing,Coonhound - Treeing Walker,"(42.38753394, -71.12520887)",42.38753394,-71.12520887,Neighborhood Nine
Chappy,Golden Retriever,"(42.38129355, -71.13779486)",42.38129355,-71.13779486,West Cambridge
Chaps,West Highland White Terrier,"(42.36941898, -71.09491329)",42.36941898,-71.09491329,The Port
Charles,Great Dane,"(42.38098782, -71.11608763)",42.38098782,-71.11608763,Agassiz
Charley,Lab / Shep,"(42.36377891, -71.08404117)",42.36377891,-71.08404117,East Cambridge
Charley,,"(42.36604747, -71.1093906)",42.36604747,-71.1093906,Riverside
Charley,Lab Chow Mix,"(42.36510248, -71.09744008)",42.36510248,-71.09744008,The Port
Charley,Cavapoo,"(42.3708037, -71.07636078)",42.3708037,-71.07636078,East Cambridge
Charli,Labrador Retriever,"(42.37868594, -71.13946654)",42.37868594,-71.13946654,West Cambridge
Charlie,Korean Jindo,"(42.39364412, -71.14257325)",42.39364412,-71.14257325,North Cambridge
Charlie,Labrador Retriever,"(42.36663804, -71.09888477)",42.36663804,-71.09888477,The Port
Charlie,Labrador Retriever,"(42.36779831, -71.09786415)",42.36779831,-71.09786415,The Port
Charlie,Labrabor Retriever,"(42.38953553, -71.12087953)",42.38953553,-71.12087953,North Cambridge
Charlie,Labrador / Hound,"(42.35683189, -71.10912158)",42.35683189,-71.10912158,Cambridgeport
Charlie,Yorkshire Maltese Mix,"(42.36852403, -71.08513482)",42.36852403,-71.08513482,East Cambridge
Charlie,Yorksire Terrier,"(42.3855728, -71.12658595)",42.3855728,-71.12658595,Neighborhood Nine
Charlie,Ret,"(42.36706614, -71.09940612)",42.36706614,-71.09940612,The Port
Charlie,Boxer,"(42.39535524, -71.12702737)",42.39535524,-71.12702737,North Cambridge
Charlie,Toy Poodle,"(42.38407335, -71.13148307)",42.38407335,-71.13148307,Neighborhood Nine
Charlie,Schnauzer,"(42.38433688, -71.11673552)",42.38433688,-71.11673552,Agassiz
Charlie,Golden Retriever,"(42.38325505, -71.12806561)",42.38325505,-71.12806561,Neighborhood Nine
Charlie,Labrador Retriever,"(42.37069133, -71.07367653)",42.37069133,-71.07367653,East Cambridge
Charlie,French Bulldog,"(42.36467721, -71.08390826)",42.36467721,-71.08390826,East Cambridge
Charlie,West Highland White Terrier,"(42.3672884, -71.07864864)",42.3672884,-71.07864864,East Cambridge
Charlie,Labrador Retriever,"(42.36374501, -71.11465454)",42.36374501,-71.11465454,Riverside
Charlie,Golden Retriever,"(42.36304631, -71.10315639)",42.36304631,-71.10315639,Cambridgeport
Charlie,Labrador Retriever,"(42.36844626, -71.10447371)",42.36844626,-71.10447371,Mid-Cambridge
Charlie,Golden Doodle,"(42.38051214, -71.11586737)",42.38051214,-71.11586737,Agassiz
Charlie,Hound,"(42.39552639, -71.13278171)",42.39552639,-71.13278171,North Cambridge
Charlie,Labrador Retriever,"(42.38557168, -71.13061437)",42.38557168,-71.13061437,Neighborhood Nine
Charlie,Morkie,"(42.38360912, -71.14179542)",42.38360912,-71.14179542,West Cambridge
Charlie,Toy Fox Terrier,"(42.39454624, -71.12986553)",42.39454624,-71.12986553,North Cambridge
Charlie,Labradoddle,"(42.38351552, -71.14070567)",42.38351552,-71.14070567,West Cambridge
Charlie,Pomeranian,"(42.39256406, -71.14542804)",42.39256406,-71.14542804,Cambridge Highlands
Charlie,Collie,"(42.35694702, -71.10718528)",42.35694702,-71.10718528,Cambridgeport
Charlie,Labrabor Retriever,"(42.3815092, -71.13807213)",42.3815092,-71.13807213,West Cambridge
Charlie,Border Collie Mix,"(42.36868231, -71.10497152)",42.36868231,-71.10497152,Mid-Cambridge
Charlie,Border Terr,"(42.35864613, -71.11287732)",42.35864613,-71.11287732,Cambridgeport
Charlie,Choc Lab Mix,"(42.38413273, -71.11704512)",42.38413273,-71.11704512,Agassiz
Charlie,Min Australian Shepherd,"(42.38526475, -71.13097244)",42.38526475,-71.13097244,Neighborhood Nine
Charlie,Collie,"(42.37737359, -71.1132655)",42.37737359,-71.1132655,Agassiz
Charlie,Lhasa Apso,"(42.36874472, -71.09109762)",42.36874472,-71.09109762,Wellington-Harrington
Charlie,Daschund,"(42.37791312, -71.10860061)",42.37791312,-71.10860061,Agassiz
Charlie,Chihuahua,"(42.35916359, -71.11032417)",42.35916359,-71.11032417,Cambridgeport
Charlie,Labrador Retriever,"(42.38495911, -71.12205003)",42.38495911,-71.12205003,Neighborhood Nine
Charlie,Labrador Retriever,"(42.37670325, -71.14567034)",42.37670325,-71.14567034,West Cambridge
Charlie,Mix,"(42.36609649, -71.11447998)",42.36609649,-71.11447998,Riverside
Charlie,Shih Tzu,"(42.38763531, -71.12182939)",42.38763531,-71.12182939,Neighborhood Nine
Charlie,West Highland White Terrier,"(42.3916358, -71.12547561)",42.3916358,-71.12547561,North Cambridge
Charlie,Boxer,"(42.39290034, -71.14613123)",42.39290034,-71.14613123,Cambridge Highlands
Charlie,Papillion Mix,"(42.37456646, -71.10453271)",42.37456646,-71.10453271,Mid-Cambridge
Charlie,Border Collie,"(42.35818357, -71.1111138)",42.35818357,-71.1111138,Cambridgeport
Charlie,Boston Terrier Mix,"(42.37146422, -71.1084192)",42.37146422,-71.1084192,Mid-Cambridge
Charlie,German Shorthair Pointer,"(42.38019407, -71.15309537)",42.38019407,-71.15309537,Strawberry Hill
Charlie,Boxer,"(42.37755327, -71.14002325)",42.37755327,-71.14002325,West Cambridge
Charlie,Poodle,"(42.36913791, -71.10986764)",42.36913791,-71.10986764,Mid-Cambridge
Charlie,Golden Retriever,"(42.37054343, -71.07095153)",42.37054343,-71.07095153,East Cambridge
Charlie,Golden Retriever,"(42.37178521, -71.10066108)",42.37178521,-71.10066108,Mid-Cambridge
Charlie Blonde,Labrador Retriever,"(42.38819453, -71.12364804)",42.38819453,-71.12364804,Neighborhood Nine
Charlotte,Belgian Shepherd,"(42.36143641, -71.11165812)",42.36143641,-71.11165812,Cambridgeport
Charlotte,Black Lab,"(42.38050029, -71.12063808)",42.38050029,-71.12063808,Neighborhood Nine
Chauncey,Beagle,"(42.37148432, -71.10329451)",42.37148432,-71.10329451,Mid-Cambridge
Chauncey,Lab,"(42.39153341, -71.14667281)",42.39153341,-71.14667281,Cambridge Highlands
Chaz,Greyhound,"(42.38015439, -71.15292318)",42.38015439,-71.15292318,Strawberry Hill
Che,Labradoodle,"(42.37584757, -71.14018879)",42.37584757,-71.14018879,West Cambridge
Cheo,Cocker,"(42.37294102, -71.08525259)",42.37294102,-71.08525259,East Cambridge
Cherokee,Lab Pointer Mix,"(42.39432543, -71.14787711)",42.39432543,-71.14787711,North Cambridge
Chesney,Hound Mix,"(42.39416898, -71.14670949)",42.39416898,-71.14670949,North Cambridge
Chessa,Tibetan Terrier,"(42.3678996, -71.10688995)",42.3678996,-71.10688995,Mid-Cambridge
Chester,Border Terrier,"(42.37648879, -71.12795011)",42.37648879,-71.12795011,West Cambridge
Chester,BOSTON TERRIER,"(42.38735347, -71.11672303)",42.38735347,-71.11672303,NA
Chester,Border Terrier,"(42.38053878, -71.14130766)",42.38053878,-71.14130766,West Cambridge
Chester,Schnoodle,"(42.36919927, -71.10608596)",42.36919927,-71.10608596,Mid-Cambridge
Chester,Hound,"(42.37449219, -71.1095481)",42.37449219,-71.1095481,Mid-Cambridge
Chester,Jrt,"(42.38367919, -71.1218202)",42.38367919,-71.1218202,Neighborhood Nine
Chester,Border Terrier,"(42.38052717, -71.14139965)",42.38052717,-71.14139965,West Cambridge
Chevy,American Bull Dog,"(42.40144589, -71.13496502)",42.40144589,-71.13496502,North Cambridge
Chewbacca,Golden Retriever,"(42.39591329, -71.14700832)",42.39591329,-71.14700832,North Cambridge
Chewie,Tibetan Spaniel,"(42.36338618, -71.10724283)",42.36338618,-71.10724283,Cambridgeport
Chewy,Lhasa Apso,"(42.38168636, -71.15721732)",42.38168636,-71.15721732,NA
Chewy,Labrador Retriever,"(42.38454914, -71.11572495)",42.38454914,-71.11572495,Agassiz
Chewy,Smoushound,"(42.37680503, -71.14064325)",42.37680503,-71.14064325,West Cambridge
Chewy,Terrier,"(42.35833264, -71.10940358)",42.35833264,-71.10940358,Cambridgeport
Cheyenne,Labrador Retriever,"(42.38020339, -71.13925195)",42.38020339,-71.13925195,West Cambridge
Chi,Husky,"(42.37535603, -71.11403079)",42.37535603,-71.11403079,Mid-Cambridge
Chica,Mix,"(42.37768343, -71.13045182)",42.37768343,-71.13045182,West Cambridge
Chica,Terrier,"(42.36670461, -71.09992752)",42.36670461,-71.09992752,The Port
Chica Maria,English Labrador,"(42.35893018, -71.10867715)",42.35893018,-71.10867715,Cambridgeport
Chi Chi,Maltese Mix,"(42.36766787, -71.09717492)",42.36766787,-71.09717492,The Port
Chi Chi,Chihuahua,"(42.36546435, -71.09624245)",42.36546435,-71.09624245,The Port
Chico,Chug,"(42.37014669, -71.08286808)",42.37014669,-71.08286808,East Cambridge
Chiki,Lab Mix,"(42.36637212, -71.09593996)",42.36637212,-71.09593996,The Port
Chili,Australian Cattle Dog,"(42.36873867, -71.09853849)",42.36873867,-71.09853849,The Port
Chili,Australian Cattle Dog,"(42.36830228, -71.09892286)",42.36830228,-71.09892286,The Port
Chilton,Blue Heeler Mix,"(42.38575978, -71.13768113)",42.38575978,-71.13768113,Neighborhood Nine
Chingo,American Hairless Terrier,"(42.36281291, -71.08890553)",42.36281291,-71.08890553,Area 2/MIT
Chip,Australian Shepherd,"(42.3816826, -71.13986351)",42.3816826,-71.13986351,West Cambridge
Chip,Miniature Poodle,"(42.37671634, -71.12978463)",42.37671634,-71.12978463,West Cambridge
Chip,Shih Tzu,"(42.37831774, -71.13914011)",42.37831774,-71.13914011,West Cambridge
Chiquita,Shih Tzu,"(42.38950404, -71.12734374)",42.38950404,-71.12734374,Neighborhood Nine
Chloe,Chihuahua,"(42.37119557, -71.07997719)",42.37119557,-71.07997719,East Cambridge
Chloe,Pit Bull,"(42.38362638, -71.11374979)",42.38362638,-71.11374979,Agassiz
Chloe,Cavalier King Charles Spaniel,"(42.37708652, -71.11331396)",42.37708652,-71.11331396,Agassiz
Chloe,Cockerpoo,"(42.37486174, -71.13119659)",42.37486174,-71.13119659,West Cambridge
Chloe,German Shepherd Mix,"(42.35561064, -71.11164192)",42.35561064,-71.11164192,Cambridgeport
Chloe,Miniature Schnauzer,"(42.37009485, -71.08091394)",42.37009485,-71.08091394,East Cambridge
Chloe,Tzu-Chon,"(42.38341393, -71.13222055)",42.38341393,-71.13222055,Neighborhood Nine
Chloe,Chihuahua,"(42.37993213, -71.13586222)",42.37993213,-71.13586222,West Cambridge
Chloe,Aust Cattle Dog Mix,"(42.37850162, -71.14971152)",42.37850162,-71.14971152,Strawberry Hill
Chloe,Rhodesian Ridgeback,"(42.3813925, -71.1413802)",42.3813925,-71.1413802,West Cambridge
Chloe,Ret,"(42.39491992, -71.12745943)",42.39491992,-71.12745943,North Cambridge
Chloe,Godlen Ret,"(42.37123872, -71.10231683)",42.37123872,-71.10231683,Mid-Cambridge
Chloe,Border Collie,"(42.37003868, -71.10864048)",42.37003868,-71.10864048,Mid-Cambridge
Chloe,Schnauzer,"(42.37127971, -71.07912835)",42.37127971,-71.07912835,East Cambridge
Chloe,Polish Lowland Sheepdog,"(42.37241791, -71.09774582)",42.37241791,-71.09774582,Wellington-Harrington
Chloe,Pug,"(42.39758101, -71.1348362)",42.39758101,-71.1348362,North Cambridge
Chloe,Border Colie Mix,"(42.36773806, -71.0976809)",42.36773806,-71.0976809,The Port
Chloe,Golden Retriever,"(42.3867917, -71.12476233)",42.3867917,-71.12476233,Neighborhood Nine
Chloe,Soft Coated Wheaten Terrier,"(42.3699428, -71.08238341)",42.3699428,-71.08238341,East Cambridge
Chloe,Yorksire Terrier,"(42.37832241, -71.14459266)",42.37832241,-71.14459266,West Cambridge
Chloe,Rhodegian Ridgeback,"(42.38145105, -71.14053556)",42.38145105,-71.14053556,West Cambridge
Chloe,Golden Retriever,"(42.38023383, -71.14152403)",42.38023383,-71.14152403,West Cambridge
Chloe,Labrador Retriever,"(42.37473531, -71.13169797)",42.37473531,-71.13169797,West Cambridge
Choc,German Shorthair Pointer,"(42.4004845, -71.13351582)",42.4004845,-71.13351582,North Cambridge
Choco,Cavalier King Charles Spaniel Mix,"(42.37098394, -71.07362013)",42.37098394,-71.07362013,East Cambridge
Choloe,Lab Mix,"(42.36098017, -71.10872285)",42.36098017,-71.10872285,Cambridgeport
Cholula,Shep,"(42.39326246, -71.15555906)",42.39326246,-71.15555906,Cambridge Highlands
Chori,Tibetan Terrier,"(42.38438865, -71.12815522)",42.38438865,-71.12815522,Neighborhood Nine
Chorizo,Pug,"(42.36828833, -71.10569627)",42.36828833,-71.10569627,Mid-Cambridge
Chowder,Golden Retriever,"(42.3663521, -71.10909192)",42.3663521,-71.10909192,Riverside
Chowder,Terrier Mix,"(42.37818754, -71.14118012)",42.37818754,-71.14118012,West Cambridge
Chozen-Zee,Blue Nose American Staffordshire Ter,"(42.3930654, -71.15737241)",42.3930654,-71.15737241,Cambridge Highlands
Christina,Chihuahua,"(42.37021468, -71.08440707)",42.37021468,-71.08440707,East Cambridge
Chub,Labrador Retriever,"(42.36918952, -71.08235093)",42.36918952,-71.08235093,East Cambridge
Chucho,American Hairless Terrier,"(42.36356032, -71.08988416)",42.36356032,-71.08988416,Area 2/MIT
Chui,Mastiff,"(42.37326519, -71.13860443)",42.37326519,-71.13860443,West Cambridge
Chula,Italian Greyhould,"(42.36123035, -71.10768179)",42.36123035,-71.10768179,Cambridgeport
Chunk,Rhodesian Ridgeback,"(42.38725577, -71.12575081)",42.38725577,-71.12575081,Neighborhood Nine
Chunky,American Bully,"(42.36527543, -71.11011735)",42.36527543,-71.11011735,Riverside
Chupchick,Shih Tzu,"(42.39321457, -71.1551332)",42.39321457,-71.1551332,Cambridge Highlands
Churi,Labrador Retriever,"(42.3779356, -71.14209349)",42.3779356,-71.14209349,West Cambridge
Chuy,Lhasa Apso,"(42.37282873, -71.08722575)",42.37282873,-71.08722575,East Cambridge
Cici,Long Hair Chihuahua,"(42.37489187, -71.13164399)",42.37489187,-71.13164399,West Cambridge
Cinco,Chihuahua,"(42.37017345, -71.07445762)",42.37017345,-71.07445762,East Cambridge
Cinder,Miniature Schnauzer,"(42.39200263, -71.1262059)",42.39200263,-71.1262059,North Cambridge
Cindy,Jack Russel Terrier,"(42.37352684, -71.10090722)",42.37352684,-71.10090722,Wellington-Harrington
Cinnamon,Brittany Spaniel,"(42.36991401, -71.08403442)",42.36991401,-71.08403442,East Cambridge
Cinnamon,Cockerpoo,"(42.38477335, -71.13589377)",42.38477335,-71.13589377,West Cambridge
Circe,Basenji,"(42.38197494, -71.13022026)",42.38197494,-71.13022026,Neighborhood Nine
Cisco,Husky,"(42.39352399, -71.12959529)",42.39352399,-71.12959529,North Cambridge
Cisco,Labradoddle,"(42.38133995, -71.14399265)",42.38133995,-71.14399265,West Cambridge
C.J.,Doberman,"(42.39718024, -71.13216765)",42.39718024,-71.13216765,North Cambridge
C.J.,Mix,"(42.37111261, -71.08813902)",42.37111261,-71.08813902,East Cambridge
C.J.,Newfoundland,"(42.37860598, -71.14546339)",42.37860598,-71.14546339,West Cambridge
Clancy,Vizsla,"(42.36989872, -71.1022567)",42.36989872,-71.1022567,Mid-Cambridge
Clara,Shih Tzu,"(42.39346026, -71.12608706)",42.39346026,-71.12608706,North Cambridge
Clara,Cocker Spaniel,"(42.38556094, -71.11912533)",42.38556094,-71.11912533,Agassiz
Clarabelle,Swiss Mountain Dog,"(42.36974832, -71.09836841)",42.36974832,-71.09836841,The Port
Clare,Rhodesian Ridgeback,"(42.35849302, -71.1093225)",42.35849302,-71.1093225,Cambridgeport
Clarice,Shih Tzu,"(42.36804219, -71.11159847)",42.36804219,-71.11159847,Riverside
Clark,Long Hair Chihuahua,"(42.37780111, -71.14683261)",42.37780111,-71.14683261,West Cambridge
Clark,Lab Mix,"(42.38100844, -71.1370867)",42.38100844,-71.1370867,West Cambridge
Clark,Dachshund,"(42.35623429, -71.11026279)",42.35623429,-71.11026279,Cambridgeport
Claudio,Cocker Spaniel,"(42.36431773, -71.11517385)",42.36431773,-71.11517385,Riverside
Clea,Jack Russel Terrier,"(42.37819763, -71.13750207)",42.37819763,-71.13750207,West Cambridge
Clem,Mix,"(42.36378384, -71.10626736)",42.36378384,-71.10626736,Cambridgeport
Clementine,Lab/Hound Mix,"(42.40224743, -71.12996456)",42.40224743,-71.12996456,NA
Clementine,Labrador Retriever,"(42.38215107, -71.1148665)",42.38215107,-71.1148665,Agassiz
Clementine,Golden - Doodle,"(42.37901827, -71.15157201)",42.37901827,-71.15157201,Strawberry Hill
Clementine,Bichon Frise,"(42.36959057, -71.08115473)",42.36959057,-71.08115473,East Cambridge
Clemetine,Golden Retriever,"(42.3739023, -71.13917833)",42.3739023,-71.13917833,West Cambridge
Cleo,Yorkie Poo,"(42.36484693, -71.09534716)",42.36484693,-71.09534716,The Port
Cleo,German Sheherd,"(42.3783249, -71.13352274)",42.3783249,-71.13352274,West Cambridge
Cleo,Labrador Retriever,"(42.3774247, -71.14073707)",42.3774247,-71.14073707,West Cambridge
Cleve,Standard Poodle,"(42.36889952, -71.10964833)",42.36889952,-71.10964833,Riverside
Clifford,Poodle,"(42.36872592, -71.11232109)",42.36872592,-71.11232109,Riverside
Clifford,Toy Poodle,"(42.36800662, -71.11357579)",42.36800662,-71.11357579,Riverside
Clinton,Shih Tzu,"(42.37214357, -71.1029119)",42.37214357,-71.1029119,Mid-Cambridge
Clio,Shiloh Shepherd,"(42.37425109, -71.14026624)",42.37425109,-71.14026624,West Cambridge
Cloe,Lakeland Terrier,"(42.37049367, -71.09876306)",42.37049367,-71.09876306,The Port
Cloey,Pug,"(42.3606126, -71.11075632)",42.3606126,-71.11075632,Cambridgeport
Clover,Border Collie Mix,"(42.35723213, -71.10907726)",42.35723213,-71.10907726,Cambridgeport
Clyde,Miniature Pinscher,"(42.37639639, -71.12422033)",42.37639639,-71.12422033,West Cambridge
Coal,Terrier,"(42.35603785, -71.1088094)",42.35603785,-71.1088094,Cambridgeport
Coal,Yorkie Mix,"(42.35602636, -71.11017042)",42.35602636,-71.11017042,Cambridgeport
Cobalt,Shetland Sheepdog,"(42.38948387, -71.14392123)",42.38948387,-71.14392123,Cambridge Highlands
Cobalt,Australian Shepherd,"(42.37948013, -71.12740382)",42.37948013,-71.12740382,West Cambridge
Cobalt,Alapha Blue Blood Bulldog,"(42.39306598, -71.13951822)",42.39306598,-71.13951822,North Cambridge
Coby,Cavalier King Charles Spaniel,"(42.39668231, -71.13485753)",42.39668231,-71.13485753,North Cambridge
Coby,Cavalier King Charles Spaniel,"(42.39803152, -71.13395823)",42.39803152,-71.13395823,North Cambridge
Cochiti,Tibetan Terrier,"(42.37482663, -71.14305075)",42.37482663,-71.14305075,West Cambridge
Coco,Collie,"(42.36875841, -71.08504061)",42.36875841,-71.08504061,East Cambridge
Coco,Terrier,"(42.37029558, -71.09486953)",42.37029558,-71.09486953,Wellington-Harrington
Coco,Mix,"(42.37787408, -71.14093916)",42.37787408,-71.14093916,West Cambridge
Coco,Labradoddle,"(42.37640269, -71.1306845)",42.37640269,-71.1306845,West Cambridge
Coco,Pit Bull,"(42.36847143, -71.11097559)",42.36847143,-71.11097559,Riverside
Coco,Golden Retriever,"(42.35633997, -71.10577971)",42.35633997,-71.10577971,Cambridgeport
Coco,Chihuahua,"(42.38547374, -71.12819787)",42.38547374,-71.12819787,Neighborhood Nine
Coco,Shih Tzu,"(42.38081216, -71.11702275)",42.38081216,-71.11702275,Agassiz
Coco,Poodle,"(42.37613718, -71.14098796)",42.37613718,-71.14098796,West Cambridge
Coco,Havanese,"(42.35901532, -71.11300364)",42.35901532,-71.11300364,Cambridgeport
Coco,Terrier Mix,"(42.3666788, -71.09585406)",42.3666788,-71.09585406,The Port
Coco,Springer Spaniel,"(42.38352133, -71.1246694)",42.38352133,-71.1246694,Neighborhood Nine
Coco,Chihuahua Mix,"(42.36179514, -71.10914745)",42.36179514,-71.10914745,Cambridgeport
Coco,French Bulldog,"(42.3709172, -71.10633748)",42.3709172,-71.10633748,Mid-Cambridge
Coco,Golden Doodle,"(42.38343639, -71.12961995)",42.38343639,-71.12961995,Neighborhood Nine
Coco,Labrador Retriever,"(42.38564026, -71.13402018)",42.38564026,-71.13402018,Neighborhood Nine
Coco,Chihuahua Long Haired,"(42.39582194, -71.14824398)",42.39582194,-71.14824398,North Cambridge
Coco,Boxer,"(42.36948205, -71.10171386)",42.36948205,-71.10171386,Mid-Cambridge
Coco,Basenji,"(42.35945146, -71.10798278)",42.35945146,-71.10798278,Cambridgeport
Coco,Maltese,"(42.36928449, -71.09473088)",42.36928449,-71.09473088,The Port
Cocoa,Weimaramer,"(42.36570431, -71.11333734)",42.36570431,-71.11333734,Riverside
Cocoa,Cockapoo,"(42.36690857, -71.09612426)",42.36690857,-71.09612426,The Port
Cocoa,Poodle,"(42.36736789, -71.09474402)",42.36736789,-71.09474402,The Port
Coco Chanel,West Highland White Terrier,"(42.3655277, -71.09826033)",42.3655277,-71.09826033,The Port
Cody,Shih Tzu,"(42.36938666, -71.09399014)",42.36938666,-71.09399014,Wellington-Harrington
Cody,Yorksire Terrier,"(42.36935481, -71.08463363)",42.36935481,-71.08463363,East Cambridge
Cody,Golden Retriever,"(42.39825083, -71.13159286)",42.39825083,-71.13159286,North Cambridge
Cody,Cockerpoo,"(42.36346706, -71.11003199)",42.36346706,-71.11003199,Riverside
Cody,Havanese,"(42.36876865, -71.0831142)",42.36876865,-71.0831142,East Cambridge
Cody,Shih Tzu,"(42.36813219, -71.08973359)",42.36813219,-71.08973359,Wellington-Harrington
Cody,Border Collie,"(42.3654756, -71.09934134)",42.3654756,-71.09934134,The Port
Cody,Norwegian Elkhound,"(42.37128471, -71.11267883)",42.37128471,-71.11267883,Mid-Cambridge
Cody,Harrier,"(42.39453081, -71.14087972)",42.39453081,-71.14087972,North Cambridge
Cody,Golden Doodle,"(42.36954663, -71.10289341)",42.36954663,-71.10289341,Mid-Cambridge
Cody,Mix,"(42.39486558, -71.14057646)",42.39486558,-71.14057646,North Cambridge
Cola,Husky Mix,"(42.36031374, -71.106167)",42.36031374,-71.106167,Cambridgeport
Cola,Huskey Mixed,"(42.36065876, -71.10501151)",42.36065876,-71.10501151,Cambridgeport
Colbert,Chihuahua,"(42.38545134, -71.13407359)",42.38545134,-71.13407359,Neighborhood Nine
Colby,Labrador Retriever,"(42.3812248, -71.12459021)",42.3812248,-71.12459021,Neighborhood Nine
Colby,Golden Retriever,"(42.38023465, -71.13696876)",42.38023465,-71.13696876,West Cambridge
Colby,Spaniel,"(42.36831622, -71.10467726)",42.36831622,-71.10467726,Mid-Cambridge
Colby,Vizsla,"(42.38758679, -71.12103971)",42.38758679,-71.12103971,Neighborhood Nine
Colby,Cockerpoo,"(42.3773192, -71.14083687)",42.3773192,-71.14083687,West Cambridge
Compass,Shepherd Mix,"(42.3590928, -71.10565086)",42.3590928,-71.10565086,Cambridgeport
Connie,Old English Sheepdog,"(42.37342181, -71.13968292)",42.37342181,-71.13968292,West Cambridge
Connie,Chihuahua Pug,"(42.36105369, -71.11162438)",42.36105369,-71.11162438,Cambridgeport
Conrad,Airedale Terrier,"(42.37369884, -71.10610014)",42.37369884,-71.10610014,Mid-Cambridge
Cookie,Labrador Retriever Mix,"(42.3909892, -71.12643293)",42.3909892,-71.12643293,North Cambridge
Cookie,Yorkie,"(42.37150422, -71.11331525)",42.37150422,-71.11331525,Mid-Cambridge
Cookie,German Shepherd,"(42.37276123, -71.0860063)",42.37276123,-71.0860063,East Cambridge
Cookie,Yorksire Terrier,"(42.3712577, -71.11402464)",42.3712577,-71.11402464,Mid-Cambridge
Cookie,Yorksire Terrier,"(42.35772524, -71.10937297)",42.35772524,-71.10937297,Cambridgeport
Cookie,Labrador Retriever,"(42.38998708, -71.13305842)",42.38998708,-71.13305842,North Cambridge
Cooper,Golden Retriever,"(42.36560105, -71.10469398)",42.36560105,-71.10469398,Cambridgeport
Cooper,Hound Mix,"(42.35674875, -71.10646209)",42.35674875,-71.10646209,Cambridgeport
Cooper,Maltipoo,"(42.37447731, -71.12533842)",42.37447731,-71.12533842,West Cambridge
Cooper,Tibetan Terrier,"(42.37774963, -71.13809821)",42.37774963,-71.13809821,West Cambridge
Cooper,Shetland Sheepdog,"(42.37718066, -71.14747495)",42.37718066,-71.14747495,West Cambridge
Cooper,Puggle,"(42.36866953, -71.11148542)",42.36866953,-71.11148542,Riverside
Cooper,Coton De Tulear,"(42.37747607, -71.14734949)",42.37747607,-71.14734949,West Cambridge
Cooper,Golden Retriever,"(42.3821951, -71.13297598)",42.3821951,-71.13297598,West Cambridge
Cooper,Tibetan Terrier,"(42.38336885, -71.13326769)",42.38336885,-71.13326769,West Cambridge
Cooper,Labrador Retriever,"(42.38571074, -71.13038005)",42.38571074,-71.13038005,Neighborhood Nine
Cooper,Golden Retriever,"(42.3821708, -71.13666262)",42.3821708,-71.13666262,West Cambridge
Cooper,Golden Doodle,"(42.3917417, -71.14660939)",42.3917417,-71.14660939,Cambridge Highlands
Cooper,Labrador Retriever,"(42.38188089, -71.12046186)",42.38188089,-71.12046186,Neighborhood Nine
Cooper,Hound,"(42.37857771, -71.15356067)",42.37857771,-71.15356067,Strawberry Hill
Cooper,Miniature Australian Shepherd,"(42.37401763, -71.10014067)",42.37401763,-71.10014067,Mid-Cambridge
Cooper,Mix,"(42.38998976, -71.12013074)",42.38998976,-71.12013074,North Cambridge
Cooper,Boxer,"(42.37833129, -71.13854778)",42.37833129,-71.13854778,West Cambridge
Cooper,German Shepherd,"(42.36136594, -71.10905936)",42.36136594,-71.10905936,Cambridgeport
Cooper,Saint Bernard,"(42.38481136, -71.13083085)",42.38481136,-71.13083085,Neighborhood Nine
Cooper,Mix,"(42.37212551, -71.10698745)",42.37212551,-71.10698745,Mid-Cambridge
Copernico,Golden Retriever,"(42.36891673, -71.08458312)",42.36891673,-71.08458312,East Cambridge
Copernicus,Golden Doodle,"(42.36614279, -71.09489161)",42.36614279,-71.09489161,The Port
Copper,Beagle Mix,"(42.38313499, -71.14146303)",42.38313499,-71.14146303,West Cambridge
Copper,German Shepherd,"(42.39309779, -71.13223895)",42.39309779,-71.13223895,North Cambridge
Copper,Shetland Sheepdog,"(42.40102179, -71.15144052)",42.40102179,-71.15144052,North Cambridge
Copper,Nova Scotia Duck Tolling Retriever,"(42.38849948, -71.14407009)",42.38849948,-71.14407009,Cambridge Highlands
Cora,Great Dane,"(42.39251711, -71.14676977)",42.39251711,-71.14676977,Cambridge Highlands
Cora,Lab Mix,"(42.36793435, -71.10700216)",42.36793435,-71.10700216,Mid-Cambridge
Corbet,Klee Kai,"(42.37529871, -71.12544262)",42.37529871,-71.12544262,West Cambridge
Corey,English Cocker Spaniel,"(42.38039136, -71.13751791)",42.38039136,-71.13751791,West Cambridge
Coriander,Cavalier King Charles Spaniel,"(42.35898958, -71.10633359)",42.35898958,-71.10633359,Cambridgeport
Corliss,Poodle,"(42.38835554, -71.12645275)",42.38835554,-71.12645275,Neighborhood Nine
Cortez,Pomeranian,"(42.37242341, -71.10667231)",42.37242341,-71.10667231,Mid-Cambridge
Cosmo,Labrador Retriever,"(42.37987752, -71.14183359)",42.37987752,-71.14183359,West Cambridge
Cosmo,French Bulldog,"(42.38176118, -71.11477373)",42.38176118,-71.11477373,Agassiz
Cosmo,Golden Retriever,"(42.38348001, -71.12137197)",42.38348001,-71.12137197,Neighborhood Nine
Cosmo,Labrador Retriever,"(42.382864, -71.12519122)",42.382864,-71.12519122,Neighborhood Nine
Cosmo,Chihuahua,"(42.36409132, -71.09435701)",42.36409132,-71.09435701,The Port
Cricket,Chihuahua,"(42.37801271, -71.14627976)",42.37801271,-71.14627976,West Cambridge
Crosby,Labradoodle,"(42.37732411, -71.14460958)",42.37732411,-71.14460958,West Cambridge
Cruella,Brussels Griffon,"(42.35779747, -71.10857105)",42.35779747,-71.10857105,Cambridgeport
Cuba,Labrador Retriever,"(42.39246835, -71.13268415)",42.39246835,-71.13268415,North Cambridge
Cupid,Beagle,"(42.36557161, -71.09527309)",42.36557161,-71.09527309,The Port
Cupid,Lahsa Apso,"(42.37375599, -71.08700406)",42.37375599,-71.08700406,East Cambridge
Curry,Shiba Inu,"(42.39425528, -71.14660908)",42.39425528,-71.14660908,North Cambridge
Custos,MIXED,"(42.36850537, -71.10541155)",42.36850537,-71.10541155,Mid-Cambridge
Cygnet,Australian Shepherd,"(42.39547772, -71.14706095)",42.39547772,-71.14706095,North Cambridge
Daemon,Boston Terrier,"(42.35713176, -71.11190404)",42.35713176,-71.11190404,Cambridgeport
Dagwood,Labrador Ret. Mix,"(42.38326368, -71.13044527)",42.38326368,-71.13044527,Neighborhood Nine
Dahlia,Labrador Retriever,"(42.39300566, -71.12850467)",42.39300566,-71.12850467,North Cambridge
